[
    {
        "type":  "Пункт выдачи заказов (ПВЗ)",
        "city":  "Евпатория",
        "address":  "пр-т Победы 87Бк1",
        "office_number":  "",
        "comment":  "Вход в ПВЗ со стороны дороги Евпатория - Мирный",
        "latitude":  "45.2086045",
        "longitude":  "33.3396381"
    },
    {
        "type":  "Постамат",
        "city":  "Хабаровск",
        "address":  "ул. Профессора Даниловского 6Б",
        "office_number":  "",
        "comment":  "Вход с ТЦ НОРД",
        "latitude":  "48.5330450",
        "longitude":  "135.0465120"
    },
    {
        "type":  "Полнофункциональный офис (ПФО)",
        "city":  "мкр Лиховской",
        "address":  "ул. Советская 85Б",
        "office_number":  "",
        "comment":  "Центр микрорайона, напротив школы, рядом Магнит, Пятёрочка",
        "latitude":  "48.1538890",
        "longitude":  "40.1902990"
    },
    {
        "type":  "Пункт выдачи заказов (ПВЗ)",
        "city":  "Екатеринбург",
        "address":  "ул. Сыромолотова 7",
        "office_number":  "",
        "comment":  "Заезд с ул. Сыромолотова, офис расположен на углу дома",
        "latitude":  "56.8406060",
        "longitude":  "60.6805600"
    },
    {
        "type":  "Пункт выдачи заказов (ПВЗ)",
        "city":  "Истра",
        "address":  "ул. Рабочая 5",
        "office_number":  "",
        "comment":  "Офис находится на пересечении Чеховского переулка и ул. Рабочая, вход справа от входа в подъезд дома.",
        "latitude":  "55.9149380",
        "longitude":  "36.8744140"
    },
    {
        "type":  "Пункт выдачи заказов (ПВЗ)",
        "city":  "Оренбург",
        "address":  "ул. Поляничко 10 пом. 12",
        "office_number":  "",
        "comment":  "Вход с внешней стороны дома",
        "latitude":  "51.8218180",
        "longitude":  "55.1736080"
    },
    {
        "type":  "Пункт выдачи заказов (ПВЗ)",
        "city":  "Барнаул",
        "address":  "пос. Бельмесево, ул. Мостовая 9",
        "office_number":  "",
        "comment":  "Остановка школа №94 автобусов 104,104ю в 100 метрах от остановки торговый дом \"Хотей. Ориентир - вывеска \"СДЭК\"",
        "latitude":  "53.1993790",
        "longitude":  "83.6902410"
    },
    {
        "type":  "Пункт выдачи заказов (ПВЗ)",
        "city":  "Набережные Челны",
        "address":  "ул. Раскольникова 40",
        "office_number":  "",
        "comment":  "Остановка автобуса улица Раскольникова, от нее 150м",
        "latitude":  "55.7299590",
        "longitude":  "52.3631930"
    },
    {
        "type":  "Пункт выдачи заказов (ПВЗ)",
        "city":  "Сочи",
        "address":  "ул. Таврическая 1В",
        "office_number":  "",
        "comment":  "Остановка общественного транспорта \"Совхоз Россия\", напротив кафе Малина",
        "latitude":  "43.3924050",
        "longitude":  "39.9875260"
    },
    {
        "type":  "Пункт выдачи заказов (ПВЗ)",
        "city":  "Королев",
        "address":  "пр-т Космонавтов 47/16, Цокольный этаж",
        "office_number":  "пав.696",
        "comment":  "Дом мебели \"Звездный\", цокольный этаж, вход в конце здания с лицевой стороны, сразу при входе - дверь справа, спуститься по лестнице в цоколь, далее направо.",
        "latitude":  "55.9065000",
        "longitude":  "37.8685000"
    },
    {
        "type":  "Пункт выдачи заказов (ПВЗ)",
        "city":  "Новосибирск",
        "address":  "ул. Вавилова 3",
        "office_number":  "2",
        "comment":  "От перекрестка прямо по ул. Плановой в сторону зоопарка по правой стороне дороги. Через 150м перед домом номер 50 (высокий многоэтажный дом) повернуть направо и двигаться до улицы Вавилова. Вход - отдельное крыльцо.",
        "latitude":  "55.0551970",
        "longitude":  "82.8958160"
    },
    {
        "type":  "Полнофункциональный офис (ПФО)",
        "city":  "Великие Луки",
        "address":  "пр-т Гагарина 57, корп. 1",
        "office_number":  "",
        "comment":  "",
        "latitude":  "56.3410090",
        "longitude":  "30.5486580"
    },
    {
        "type":  "Полнофункциональный офис (ПФО)",
        "city":  "Солнечногорск",
        "address":  "ул. Красная 176",
        "office_number":  "",
        "comment":  "Вход со двора",
        "latitude":  "56.1973090",
        "longitude":  "36.9636250"
    },
    {
        "type":  "Полнофункциональный офис (ПФО)",
        "city":  "Железногорск, ЗАТО Железногорск",
        "address":  "пр-т Ленинградский 73",
        "office_number":  "",
        "comment":  "со стороны дороги, рядом с магазином Берлога",
        "latitude":  "56.2238890",
        "longitude":  "93.5116440"
    },
    {
        "type":  "Пункт выдачи заказов (ПВЗ)",
        "city":  "Волгоград",
        "address":  "б-р 30-летия Победы 44",
        "office_number":  "",
        "comment":  "Вход в Супермаркет Перекресток",
        "latitude":  "48.7453770",
        "longitude":  "44.5029880"
    },
    {
        "type":  "Пункт выдачи заказов (ПВЗ)",
        "city":  "Тюмень",
        "address":  "ул. Демьяна Бедного 83",
        "office_number":  "",
        "comment":  "Белый панельный дом Z-образный, вход с улицы Демьяна Бедного на против киоска журналов",
        "latitude":  "57.1272960",
        "longitude":  "65.5424580"
    },
    {
        "type":  "Пункт выдачи заказов (ПВЗ)",
        "city":  "Миасс",
        "address":  "ул. Макеева 65/8",
        "office_number":  "",
        "comment":  "200 метров от остановки \"Стадион\" в сторону микрорайона \"М\"",
        "latitude":  "55.1624330",
        "longitude":  "60.1582250"
    },
    {
        "type":  "Полнофункциональный офис (ПФО)",
        "city":  "Устюжна",
        "address":  "ул. Ленина 58",
        "office_number":  "",
        "comment":  "От светофора, вверх в гору,офис располагается рядом со школой №2",
        "latitude":  "58.8419400",
        "longitude":  "36.4134890"
    },
    {
        "type":  "Пункт выдачи заказов (ПВЗ)",
        "city":  "Москва",
        "address":  "ул. Верхняя Первомайская 47 корп. 11",
        "office_number":  "",
        "comment":  "",
        "latitude":  "55.8006100",
        "longitude":  "37.7961840"
    },
    {
        "type":  "Пункт выдачи заказов (ПВЗ)",
        "city":  "Калининград",
        "address":  "ул. Совхозная 1Д",
        "office_number":  "",
        "comment":  "Двигаться от остановки Улица Васнецова по ул.Орудийной до перекрестка с ул.Совхозной, повернуть и идти прямо еще 600 м., пройти здание Курган-Балта, повернуть направо, ориентир вет.клиника «Велес», пройти 50 метров.",
        "latitude":  "54.7375330",
        "longitude":  "20.5633080"
    },
    {
        "type":  "Пункт выдачи заказов (ПВЗ)",
        "city":  "Саратов",
        "address":  "ул. им.Радищева А.Н 50",
        "office_number":  "",
        "comment":  "От ул. Радищева/Кутякова двигаться в сторону Экономического института по правой стороне ул.Радищева.Через 200 м. вход в отдельно-стоящем трехэтажном здании.",
        "latitude":  "51.5365150",
        "longitude":  "46.0399070"
    },
    {
        "type":  "Пункт выдачи заказов (ПВЗ)",
        "city":  "Воткинск",
        "address":  "ул. Степана Разина 7",
        "office_number":  "",
        "comment":  "Автобусная остановка \"ул. Степана Разина\", вход со стороны ул. Дзержинского",
        "latitude":  "57.0626970",
        "longitude":  "53.9928450"
    },
    {
        "type":  "Полнофункциональный офис (ПФО)",
        "city":  "Тулун",
        "address":  "ул. Гидролизная 14/2",
        "office_number":  "",
        "comment":  "Любой общественный транспорт",
        "latitude":  "54.5407250",
        "longitude":  "100.6083270"
    },
    {
        "type":  "Пункт выдачи заказов (ПВЗ)",
        "city":  "Новокузнецк",
        "address":  "пр-т Металлургов 36",
        "office_number":  "",
        "comment":  "первый этаж, вход со стороны Пионерского проспекта",
        "latitude":  "53.7608742",
        "longitude":  "87.1190983"
    },
    {
        "type":  "Полнофункциональный офис (ПФО)",
        "city":  "Мариинск, Кемеровская область",
        "address":  "ул. 50 лет Октября 86",
        "office_number":  "",
        "comment":  "Выезд на территории за магазином Красное-Белое",
        "latitude":  "56.2014650",
        "longitude":  "87.7126090"
    },
    {
        "type":  "Постамат",
        "city":  "Нижний Тагил",
        "address":  "ул. Зари 15",
        "office_number":  "",
        "comment":  "ТЦ Заря, 1-й этаж",
        "latitude":  "57.9145860",
        "longitude":  "60.1411840"
    },
    {
        "type":  "Пункт выдачи заказов (ПВЗ)",
        "city":  "Омск",
        "address":  "ул. 21-я Амурская 12",
        "office_number":  "",
        "comment":  "За остановкой 21-я Амурская",
        "latitude":  "55.0265770",
        "longitude":  "73.4129030"
    },
    {
        "type":  "Пункт выдачи заказов (ПВЗ)",
        "city":  "Москва",
        "address":  "ш. Каширское 26к3",
        "office_number":  "",
        "comment":  "Из м. Каширское, по ул. Маршала Шестопалова 140 м., во дворе",
        "latitude":  "55.6530400",
        "longitude":  "37.6474210"
    },
    {
        "type":  "Пункт выдачи заказов (ПВЗ)",
        "city":  "Агалатово",
        "address":  "ш. Приозерское 47",
        "office_number":  "",
        "comment":  "Остановка \"Дорога на Сертолово\". Рядом с Магнитом и ПВЗ Озон",
        "latitude":  "60.2192750",
        "longitude":  "30.2882450"
    },
    {
        "type":  "Пункт выдачи заказов (ПВЗ)",
        "city":  "Кострома, городской округ Кострома",
        "address":  "ул. Индустриальная 16",
        "office_number":  "",
        "comment":  "От остановки Микрорайон Давыдовский-1 53м. В близи находится ТЦ Авакадо и ТЦ Манго.",
        "latitude":  "57.7400490",
        "longitude":  "41.0030250"
    },
    {
        "type":  "Пункт выдачи заказов (ПВЗ)",
        "city":  "Брянск",
        "address":  "ул. Пушкина 65",
        "office_number":  "",
        "comment":  "Напротив остановки Школа № 46 , через дорогу - дом № 65.  Вход со стороны проезжей части",
        "latitude":  "53.2730330",
        "longitude":  "34.4019180"
    },
    {
        "type":  "Пункт выдачи заказов (ПВЗ)",
        "city":  "Липецк",
        "address":  "пр-д Боевой 39",
        "office_number":  "",
        "comment":  "Автобусы 1т,113,11 Маршрутки 321,332,379.",
        "latitude":  "52.6331540",
        "longitude":  "39.5473240"
    },
    {
        "type":  "Пункт выдачи заказов (ПВЗ)",
        "city":  "посёлок Октябрьской фабрики, Истра",
        "address":  "Октябрьской фабрики 25/1",
        "office_number":  "",
        "comment":  "Въезд на территорию (ориентир магазин Магнит) , прямо перед нами помещение CDEK",
        "latitude":  "55.8548420",
        "longitude":  "36.9296970"
    },
    {
        "type":  "Пункт выдачи заказов (ПВЗ)",
        "city":  "Пермь",
        "address":  "ул. Маршала Рыбалко 94",
        "office_number":  "",
        "comment":  "Кировскй р-он г. Пермь, остановка кинотеатр «Рубин»",
        "latitude":  "58.0096600",
        "longitude":  "55.9665300"
    },
    {
        "type":  "Полнофункциональный офис (ПФО)",
        "city":  "Чегдомын",
        "address":  "ул. Центральная 52",
        "office_number":  "",
        "comment":  "До конца по ул. Центральной. Офис сбоку дома, рядом детская площадка",
        "latitude":  "51.1375720",
        "longitude":  "133.0452280"
    },
    {
        "type":  "Пункт выдачи заказов (ПВЗ)",
        "city":  "Барнаул",
        "address":  "пр-т Ленина 47",
        "office_number":  "",
        "comment":  "От остановки пл. Советов 360 м в низ по пр. Ленина, напротив АлтГТУ",
        "latitude":  "53.3435750",
        "longitude":  "83.7810790"
    },
    {
        "type":  "Пункт выдачи заказов (ПВЗ)",
        "city":  "Ижевск",
        "address":  "ул. Кирова 142",
        "office_number":  "",
        "comment":  "ТЦ «Алые паруса», вход со стороны ул.Удмуртской",
        "latitude":  "56.8620760",
        "longitude":  "53.2182280"
    },
    {
        "type":  "Полнофункциональный офис (ПФО)",
        "city":  "Александров, Владимирская область",
        "address":  "ул. Институтская 10",
        "office_number":  "",
        "comment":  "здание \"Россельхозбанк\" напротив Налоговой",
        "latitude":  "56.3945200",
        "longitude":  "38.7097980"
    },
    {
        "type":  "Пункт выдачи заказов (ПВЗ)",
        "city":  "Набережные Челны",
        "address":  "пр-т Яшлек 14",
        "office_number":  "",
        "comment":  "ТЦ \"Эссен\", 65 кс. Возле магазина \"Декатлон\", напротив Детской поликлиники №4",
        "latitude":  "55.7618010",
        "longitude":  "52.4532670"
    },
    {
        "type":  "Пункт выдачи заказов (ПВЗ)",
        "city":  "Родники, Раменский г.о.",
        "address":  "ул. Чехова 1",
        "office_number":  "",
        "comment":  "От станции ЖД Удельная От станции ЖД Родники",
        "latitude":  "55.6483670",
        "longitude":  "38.0544950"
    },
    {
        "type":  "Пункт выдачи заказов (ПВЗ)",
        "city":  "Махачкала",
        "address":  "ул. Юсупа Акаева 23",
        "office_number":  "",
        "comment":  "",
        "latitude":  "42.9520800",
        "longitude":  "47.5065950"
    },
    {
        "type":  "Пункт выдачи заказов (ПВЗ)",
        "city":  "Кострома, городской округ Кострома",
        "address":  "ул. Козуева 71",
        "office_number":  "",
        "comment":  "ЖК Лучи, вход с правого торца здания",
        "latitude":  "57.7814040",
        "longitude":  "40.9196270"
    },
    {
        "type":  "Пункт выдачи заказов (ПВЗ)",
        "city":  "Омск",
        "address":  "пр-т. Космический 18",
        "office_number":  "",
        "comment":  "(200 метров от ост. «Столовая (пр. Космический)», 500 метров по ходу движения от кинотеатра Космос, в здании с Красное\u0026Белое и Smokelab)",
        "latitude":  "54.9719670",
        "longitude":  "73.4528420"
    },
    {
        "type":  "Пункт выдачи заказов (ПВЗ)",
        "city":  "Дербент, Дербентский район",
        "address":  "пр-т Агасиева 13В/1",
        "office_number":  "",
        "comment":  "Напротив салон красоты Wella",
        "latitude":  "42.0669340",
        "longitude":  "48.2953250"
    },
    {
        "type":  "Полнофункциональный офис (ПФО)",
        "city":  "Пласт",
        "address":  "ул. Блюхера 15а",
        "office_number":  "",
        "comment":  "От центрального въезда, прямо 850 м, здание слева",
        "latitude":  "54.3639370",
        "longitude":  "60.8015180"
    },
    {
        "type":  "Пункт выдачи заказов (ПВЗ)",
        "city":  "Томск",
        "address":  "ул. Большая Подгорная 87",
        "office_number":  "33",
        "comment":  "Главный вход в офис со стороны ул. Дальне-Ключевская рядом с магазином Абрикос, так же есть дополнительные входы с стороны ул. Большая Подгорная, пер. Островского, офис 33, домофон 33.",
        "latitude":  "56.5034090",
        "longitude":  "84.9540090"
    },
    {
        "type":  "Полнофункциональный офис (ПФО)",
        "city":  "Приволжск",
        "address":  "ул. Коминтерновская 63",
        "office_number":  "",
        "comment":  "Офис находится на пересечении улиц Коминтерновская и Советская, рядом с остановкой общественного транспорта \"школа\", здание\"Золотое кольцо\"",
        "latitude":  "57.3792170",
        "longitude":  "41.2882410"
    },
    {
        "type":  "Пункт выдачи заказов (ПВЗ)",
        "city":  "Нальчик",
        "address":  "ул. Ногмова 79/235",
        "office_number":  "",
        "comment":  "На пересечении улиц Кирова и Ногмова (вход по ул. Ногмова), напротив кафе «Master Gyros»",
        "latitude":  "43.4918780",
        "longitude":  "43.5975490"
    },
    {
        "type":  "Пункт выдачи заказов (ПВЗ)",
        "city":  "Санкт-Петербург",
        "address":  "Ланское ш. 14 корп. 1",
        "office_number":  "",
        "comment":  "Офис находится, в здании ЖК «Ланской квартал» посредине между остановками общественного транспорта «Новосибирская улица / Ланское шоссе и Омская улица». Вход со двора.",
        "latitude":  "59.9942370",
        "longitude":  "30.3098980"
    },
    {
        "type":  "Пункт выдачи заказов (ПВЗ)",
        "city":  "Вологда",
        "address":  "ул. Костромская 5, цокольный этаж",
        "office_number":  "",
        "comment":  "Слева от магазина \"Магнит, цокольный этаж.",
        "latitude":  "59.2019750",
        "longitude":  "39.8403760"
    },
    {
        "type":  "Пункт выдачи заказов (ПВЗ)",
        "city":  "Нижний Новгород",
        "address":  "б-р Мещерский 7, корп. 3",
        "office_number":  "",
        "comment":  "Напротив магазина Перекресток , 12-этажный дом. Вход в офис находится в нише здания, рядом с электроматериалами, вывеска СДЭК.",
        "latitude":  "56.3386350",
        "longitude":  "43.9337100"
    },
    {
        "type":  "Пункт выдачи заказов (ПВЗ)",
        "city":  "Кемерово",
        "address":  "ул. Пролетарская 29",
        "office_number":  "",
        "comment":  "Пешком, общественный транспорт №6, 7, 17, 64, 100, 226, такси.",
        "latitude":  "55.3303480",
        "longitude":  "86.0660060"
    },
    {
        "type":  "Пункт выдачи заказов (ПВЗ)",
        "city":  "Оренбург",
        "address":  "пр. Победы 75Е",
        "office_number":  "",
        "comment":  "Слева от остановки «Дом памяти» по направлению к центру города, в 30 метрах от остановки. Единый вход с «Медикал Он групп»",
        "latitude":  "51.7828770",
        "longitude":  "55.1152180"
    },
    {
        "type":  "Пункт выдачи заказов (ПВЗ)",
        "city":  "Черкесск",
        "address":  "ул. Красноармейская 74",
        "office_number":  "",
        "comment":  "По улице Красноармейская рядом с Казаначейством, в 300 метрах от Детской Поликлиники и ТЦ Россия",
        "latitude":  "44.2219730",
        "longitude":  "42.0482160"
    },
    {
        "type":  "Пункт выдачи заказов (ПВЗ)",
        "city":  "Челябинск",
        "address":  "ул. Троицкий тракт 11Л",
        "office_number":  "",
        "comment":  "Главный вход, по коридору направо, офис 109.",
        "latitude":  "55.1129680",
        "longitude":  "61.3858630"
    },
    {
        "type":  "Постамат",
        "city":  "Новокузнецк",
        "address":  "пр-т. Запсибовцев 4Б",
        "office_number":  "",
        "comment":  "ТЦ Новоильинский-От центрального входа на право, первый этаж",
        "latitude":  "53.8945590",
        "longitude":  "87.1280760"
    },
    {
        "type":  "Пункт выдачи заказов (ПВЗ)",
        "city":  "Астрахань",
        "address":  "ул. Яблочкова 42",
        "office_number":  "",
        "comment":  "От пересечении  улица Яблочкова и 1-Перевозная пешком в сторону Мясокомбината, Второй дом слева. Около магазин Баргузин",
        "latitude":  "46.3628470",
        "longitude":  "48.0651590"
    },
    {
        "type":  "Пункт выдачи заказов (ПВЗ)",
        "city":  "Папино, Жуковский район",
        "address":  "дер. Папино 93",
        "office_number":  "",
        "comment":  "В 10 минутах пешком от автобучной остановки Чубарова рядом с ТЦ Папино-Плаза",
        "latitude":  "55.2090300",
        "longitude":  "36.9470530"
    },
    {
        "type":  "Пункт выдачи заказов (ПВЗ)",
        "city":  "Балашиха",
        "address":  "ул. Лукино 57А",
        "office_number":  "",
        "comment":  "напротив остановки «Алексеевская Роща»",
        "latitude":  "55.8353820",
        "longitude":  "37.9358360"
    },
    {
        "type":  "Полнофункциональный офис (ПФО)",
        "city":  "Амурск",
        "address":  "пр. Строителей 38",
        "office_number":  "",
        "comment":  "Автобус маршрут №6",
        "latitude":  "50.2400900",
        "longitude":  "136.9132570"
    },
    {
        "type":  "Пункт выдачи заказов (ПВЗ)",
        "city":  "Кемерово",
        "address":  "ул. Ноградская 21",
        "office_number":  "",
        "comment":  "От остановки \"Главпочтамт\" в сторону улицы Красноармейской пройти 1 минуту",
        "latitude":  "55.3536470",
        "longitude":  "86.0852750"
    },
    {
        "type":  "Пункт выдачи заказов (ПВЗ)",
        "city":  "Путилково",
        "address":  "ул. 71 КМ МКАД стр. 16 \"а\"",
        "office_number":  "",
        "comment":  "71-м км МКАД с внешней стороны, между ул. Свободы и Волоколамским шоссе",
        "latitude":  "55.8570680",
        "longitude":  "37.3931190"
    },
    {
        "type":  "Полнофункциональный офис (ПФО)",
        "city":  "Здвинск",
        "address":  "ул. Здвинского 33",
        "office_number":  "",
        "comment":  "От центра с.Здвинск (Администарция) 10 мин.пешком и 3 мин. на машине",
        "latitude":  "54.6993840",
        "longitude":  "78.6542050"
    },
    {
        "type":  "Пункт выдачи заказов (ПВЗ)",
        "city":  "Грозный, г/о Грозный",
        "address":  "ул. Моздокская 23",
        "office_number":  "",
        "comment":  "Подразделение расположено в районе старого здания 9гор. больницы, на пересечении ул. Моздокская и ул. Тасуева",
        "latitude":  "43.3338110",
        "longitude":  "45.6796200"
    },
    {
        "type":  "Пункт выдачи заказов (ПВЗ)",
        "city":  "Москва",
        "address":  "пер. Благовещенский 5",
        "office_number":  "",
        "comment":  "через арку во двор и налево",
        "latitude":  "55.7679190",
        "longitude":  "37.5985550"
    },
    {
        "type":  "Полнофункциональный офис (ПФО)",
        "city":  "Раздольное, Раздольненский район",
        "address":  "ул. Евпаторийское шоссе 2Г",
        "office_number":  "",
        "comment":  "Парковка рядом с магазинами Вольтмарт и ПУД",
        "latitude":  "45.7671090",
        "longitude":  "33.4871100"
    },
    {
        "type":  "Пункт выдачи заказов (ПВЗ)",
        "city":  "Красногорск",
        "address":  "ул. Игната Титова 7",
        "office_number":  "",
        "comment":  "",
        "latitude":  "55.8237980",
        "longitude":  "37.3713980"
    },
    {
        "type":  "Пункт выдачи заказов (ПВЗ)",
        "city":  "Новокаякент",
        "address":  "ул. Юсупа Акаева 29",
        "office_number":  "",
        "comment":  "2,3 км от кольца с.Каякент в сторону центра с.Новокаякент",
        "latitude":  "42.3885610",
        "longitude":  "47.9750840"
    },
    {
        "type":  "Полнофункциональный офис (ПФО)",
        "city":  "Пугачев",
        "address":  "ул. Бубенца 21/6",
        "office_number":  "",
        "comment":  "От остановки Техникум пройти через парк «Войнов Интернациолистов» в сторону ул. Бубенца, повернуть налево пройти вдоль аллеи им. Чапаева, дойти до середины аллеи и повернуть направо.",
        "latitude":  "52.0100600",
        "longitude":  "48.8130150"
    },
    {
        "type":  "Пункт выдачи заказов (ПВЗ)",
        "city":  "Тюмень",
        "address":  "ул. Западносибирская 30",
        "office_number":  "",
        "comment":  "1этаж многоэтажного жилого дома",
        "latitude":  "57.1455240",
        "longitude":  "65.6578190"
    },
    {
        "type":  "Пункт выдачи заказов (ПВЗ)",
        "city":  "Таганрог",
        "address":  "ул Транспортная 48",
        "office_number":  "7",
        "comment":  "Офис находится в 100 метрах от остановки «26 Магазин». Идти в сторону Николаевского круга. Напротив 26го магазина. 3 магазин от Николаевского рынка.",
        "latitude":  "47.2392420",
        "longitude":  "38.8853200"
    },
    {
        "type":  "Пункт выдачи заказов (ПВЗ)",
        "city":  "Владивосток",
        "address":  "пр-т Острякова 5",
        "office_number":  "502",
        "comment":  "От остановки 1-я Речка пройти 500м вдоль дороги в сторону Партизанского проспекта. 6-ти этажное здание справа от дороги. Вход — крайняя дверь справа, 5 этаж.",
        "latitude":  "43.1302290",
        "longitude":  "131.9001630"
    },
    {
        "type":  "Пункт выдачи заказов (ПВЗ)",
        "city":  "Сыктывкар",
        "address":  "ул. Морозова 51",
        "office_number":  "",
        "comment":  "ТК Оптима, 1 этаж",
        "latitude":  "61.6671830",
        "longitude":  "50.7902790"
    },
    {
        "type":  "Пункт выдачи заказов (ПВЗ)",
        "city":  "Сочи",
        "address":  "ул. Донская 9",
        "office_number":  "",
        "comment":  "На любом автобусе по ул. Донской. Остановка в 150м. Перед офисом есть парковка для машин.",
        "latitude":  "43.6170490",
        "longitude":  "39.7242030"
    },
    {
        "type":  "Пункт выдачи заказов (ПВЗ)",
        "city":  "Севастополь",
        "address":  "Фиолентовское ш. 1/13 корпус У",
        "office_number":  "",
        "comment":  "С остановки студгородок вдоль забора на территорию завод Маяк",
        "latitude":  "44.5844410",
        "longitude":  "33.4803370"
    },
    {
        "type":  "Пункт выдачи заказов (ПВЗ)",
        "city":  "Ростов-на-Дону",
        "address":  "ул. 35-я линия 83/75",
        "office_number":  "",
        "comment":  "От остановки автобуса Красный Аксай пройти вправо по улице 35я линия 50 метров и зайти в офис СДЭК с торца здания.",
        "latitude":  "47.2250300",
        "longitude":  "39.7758630"
    },
    {
        "type":  "Пункт выдачи заказов (ПВЗ)",
        "city":  "Коломна",
        "address":  "ул. Октябрьской Революции 330",
        "office_number":  "",
        "comment":  "",
        "latitude":  "55.0880860",
        "longitude":  "38.7884170"
    },
    {
        "type":  "Пункт выдачи заказов (ПВЗ)",
        "city":  "Десёновское",
        "address":  "ул. 3-я Нововатутинская 15к1",
        "office_number":  "",
        "comment":  "Адрес: 3 Нововатутинская 15к1, между 6 и 7 жилыми подъездами",
        "latitude":  "55.5165959",
        "longitude":  "37.3390000"
    },
    {
        "type":  "Пункт выдачи заказов (ПВЗ)",
        "city":  "Битца",
        "address":  "ул. Парковая 1",
        "office_number":  "",
        "comment":  "ул. Парковая д.1 вход рядом с 6 подъездом",
        "latitude":  "55.5561570",
        "longitude":  "37.5985650"
    },
    {
        "type":  "Пункт выдачи заказов (ПВЗ)",
        "city":  "Москва",
        "address":  "ул. Большая Черёмушкинская 2Ас1",
        "office_number":  "",
        "comment":  "6 мин пешком от МЦК Крымская\n5 мин на автомобиле по Ленинскому проспекту\n1 мин на автомобиле по Севастопольскому проспекту",
        "latitude":  "55.6914350",
        "longitude":  "37.5999110"
    },
    {
        "type":  "Пункт выдачи заказов (ПВЗ)",
        "city":  "Москва",
        "address":  "ул. Южнобутовская 29",
        "office_number":  "",
        "comment":  "Вход расположен на первом этаже жилого дома, с левой стороны от входа в магазин «Пятерочка»",
        "latitude":  "55.5384730",
        "longitude":  "37.5372180"
    },
    {
        "type":  "Пункт выдачи заказов (ПВЗ)",
        "city":  "Воронеж",
        "address":  "ул. Ломоносова 114/8",
        "office_number":  "",
        "comment":  "Остановка \"Микрорайон Березка\", слева от магазин \"Магнит\"",
        "latitude":  "51.7266010",
        "longitude":  "39.2057490"
    },
    {
        "type":  "Пункт выдачи заказов (ПВЗ)",
        "city":  "Апастово, Апастовский район",
        "address":  "ул. Поперечная 1Б",
        "office_number":  "",
        "comment":  "находится на перекрестке улиц Рима Абзалова и Поперечная",
        "latitude":  "55.2032980",
        "longitude":  "48.4998360"
    },
    {
        "type":  "Пункт выдачи заказов (ПВЗ)",
        "city":  "Москва",
        "address":  "ул. Кировоградская 9к1",
        "office_number":  "",
        "comment":  "ТЦ Лавка вход №1, Идём прямо до конца галереи, Поворачиваем налево, Пункт выдачи по правую сторону",
        "latitude":  "55.6255722",
        "longitude":  "37.6122894"
    },
    {
        "type":  "Пункт выдачи заказов (ПВЗ)",
        "city":  "Новоалтайск",
        "address":  "ул. Прудская 6",
        "office_number":  "",
        "comment":  "Напротив ТЦ Азия",
        "latitude":  "53.4200760",
        "longitude":  "83.9295970"
    },
    {
        "type":  "Полнофункциональный офис (ПФО)",
        "city":  "Беляевка, Беляевский район",
        "address":  "ул. Комсомольская 18Б",
        "office_number":  "",
        "comment":  "В здании пункта выдачи Озон, расположен между зданиями кафе Степные зори и службы Центра занятости",
        "latitude":  "51.3979770",
        "longitude":  "56.4093230"
    },
    {
        "type":  "Полнофункциональный офис (ПФО)",
        "city":  "Угольные Копи",
        "address":  "ул. Причальная 14",
        "office_number":  "",
        "comment":  "\"офис СДЭК\" Причальная 14, п. Угольные Копи; база Тищенко",
        "latitude":  "64.7336270",
        "longitude":  "177.6918200"
    },
    {
        "type":  "Пункт выдачи заказов (ПВЗ)",
        "city":  "Подольск",
        "address":  "пос. Железнодорожный 1",
        "office_number":  "",
        "comment":  "При въезде в микрорайон Климовск после кольцевого движения двигаться по ул. Симферопольской через 150 метров повернуть направо",
        "latitude":  "55.3837690",
        "longitude":  "37.5362780"
    },
    {
        "type":  "Пункт выдачи заказов (ПВЗ)",
        "city":  "Москва",
        "address":  "ул. Народного Ополчения 20, корп. 1",
        "office_number":  "",
        "comment":  "Вход со стороны дороги ул. Народного ополчения, д. 21, корп. 1",
        "latitude":  "55.7774790",
        "longitude":  "37.4803680"
    },
    {
        "type":  "Полнофункциональный офис (ПФО)",
        "city":  "Чернянка, Чернянский район",
        "address":  "пл. Октябрьская 11а",
        "office_number":  "",
        "comment":  "Здание Центральная гостиница.",
        "latitude":  "50.9426820",
        "longitude":  "37.8043590"
    },
    {
        "type":  "Пункт выдачи заказов (ПВЗ)",
        "city":  "Москва",
        "address":  "ул. Кольская 11",
        "office_number":  "",
        "comment":  "от метро Свиблово, автобус 380, 628, 61, 183, 428 остановка: ул. Вересковая",
        "latitude":  "55.8618064",
        "longitude":  "37.6445720"
    },
    {
        "type":  "Пункт выдачи заказов (ПВЗ)",
        "city":  "Нижний Новгород",
        "address":  "ул. Мечтателей 2",
        "office_number":  "4",
        "comment":  "Крайнее левое крыльцо со стороны парковки",
        "latitude":  "56.2729340",
        "longitude":  "44.0453380"
    },
    {
        "type":  "Пункт выдачи заказов (ПВЗ)",
        "city":  "Коммунарка",
        "address":  "пр-т Магеллана 4",
        "office_number":  "",
        "comment":  "М. Прокшино, пешком 25 минут, на автобусе 313 или 109 18 минут до остановки Николо-Хаванская улица, пункт находится на лицевой стороне дома, ориентир — вывеска СДЭК.",
        "latitude":  "55.5920470",
        "longitude":  "37.4436480"
    },
    {
        "type":  "Пункт выдачи заказов (ПВЗ)",
        "city":  "Балашиха",
        "address":  "пр-т Ленина 8",
        "office_number":  "",
        "comment":  "Остановка МФЦ. Пешком в сторону церкви по проспекту Ленина (МФЦ остается сзади). Пройдя дом №8, по левую руку с торца дома будет отдельный вход в цокольный этаж с вывеской «CDEK». Спуститься по ступеням.",
        "latitude":  "55.7966630",
        "longitude":  "37.9335010"
    },
    {
        "type":  "Пункт выдачи заказов (ПВЗ)",
        "city":  "Новосибирск",
        "address":  "ул. Блюхера 20",
        "office_number":  "",
        "comment":  "Остановка ул.Космическая, с просп. Карла Маркса пешком по ул.Космическая, далее свернуть на Блюхера.",
        "latitude":  "54.9873580",
        "longitude":  "82.8965970"
    },
    {
        "type":  "Пункт выдачи заказов (ПВЗ)",
        "city":  "Москва",
        "address":  "ул. Яблочкова 43В",
        "office_number":  "",
        "comment":  "Пункт выдачи находится в жилом многоэтажном доме 43В на улице Яблочкова, вход со стороны подъезда, чуть левее его. Ориентир — вывеска Ozon.",
        "latitude":  "55.8285920",
        "longitude":  "37.5747860"
    },
    {
        "type":  "Пункт выдачи заказов (ПВЗ)",
        "city":  "Санкт-Петербург",
        "address":  "ул. Разъезжая 2",
        "office_number":  "",
        "comment":  "Вход через арку с Разъезжей улицы",
        "latitude":  "59.9260710",
        "longitude":  "30.3441520"
    },
    {
        "type":  "Пункт выдачи заказов (ПВЗ)",
        "city":  "Екатеринбург",
        "address":  "ул. Вайнера 51б",
        "office_number":  "1-5",
        "comment":  "",
        "latitude":  "56.8276253",
        "longitude":  "60.5982933"
    },
    {
        "type":  "Полнофункциональный офис (ПФО)",
        "city":  "Новокузнецк",
        "address":  "туп. Балочный 2/6, к. 14",
        "office_number":  "",
        "comment":  "От ТРЦ Планета прямо 250 м., поверните налево и далее прямо 100 м., поверните направо пройдите еще 50 м., поверните налево и двигайтесь прямо 250 м., справа будет (Картин) от развилки, поверните налево и двигайтесь прямо 150 м. и вы на месте.",
        "latitude":  "53.7826880",
        "longitude":  "87.1231980"
    },
    {
        "type":  "Пункт выдачи заказов (ПВЗ)",
        "city":  "Москва",
        "address":  "ул. Профсоюзная 56",
        "office_number":  "",
        "comment":  "1 минута от метро Новые Черемушки",
        "latitude":  "55.6700210",
        "longitude":  "37.5524800"
    },
    {
        "type":  "Пункт выдачи заказов (ПВЗ)",
        "city":  "Красносельское, Динской район",
        "address":  "ул. Крыжановского 15",
        "office_number":  "",
        "comment":  "Здание где были роллы \"Токио\"",
        "latitude":  "45.2830770",
        "longitude":  "39.1550290"
    },
    {
        "type":  "Пункт выдачи заказов (ПВЗ)",
        "city":  "Санкт-Петербург",
        "address":  "пр-т Шлиссельбургский 6, корп. 1",
        "office_number":  "",
        "comment":  "от остановки \"Шлиссельбургский проспект\" прямо 20 метров, до вывески",
        "latitude":  "59.8421100",
        "longitude":  "30.4901140"
    },
    {
        "type":  "Пункт выдачи заказов (ПВЗ)",
        "city":  "Санкт-Петербург",
        "address":  "пр-т Металлистов 116, корп. 1, пом. 8-Н",
        "office_number":  "",
        "comment":  "Вход со стороны пр. Металлистов, ближе к улице Федосеенко, справа от шиномонтажа",
        "latitude":  "59.9721880",
        "longitude":  "30.3947680"
    },
    {
        "type":  "Пункт выдачи заказов (ПВЗ)",
        "city":  "Тула",
        "address":  "ул. Октябрьская 217 корп. 1",
        "office_number":  "",
        "comment":  "Остановка Аэропорт, пересечение ул. Октябрьская и ул. Судейского, вход со стороны ТЦ Зельгрос.",
        "latitude":  "54.2343060",
        "longitude":  "37.6242740"
    },
    {
        "type":  "Пункт выдачи заказов (ПВЗ)",
        "city":  "Батайск",
        "address":  "ул. Северный Массив 5/2",
        "office_number":  "",
        "comment":  "Фасадное здание на улице Северный Массив",
        "latitude":  "47.1545130",
        "longitude":  "39.7416300"
    },
    {
        "type":  "Пункт выдачи заказов (ПВЗ)",
        "city":  "Хабаровск",
        "address":  "ул. Флегонтова 4",
        "office_number":  "",
        "comment":  "Вход с улицы Краснореченская, отдельное крыльцо с торца жилого высокоэтажного дома.",
        "latitude":  "48.4346040",
        "longitude":  "135.1104100"
    },
    {
        "type":  "Пункт выдачи заказов (ПВЗ)",
        "city":  "Ульяновск",
        "address":  "ул. Шолмова 11",
        "office_number":  "",
        "comment":  "Спортивно-развлекательный комплекс \"Меркурий\". \nОтдельный вход, рядом с магазином \"Магнит\".\nМаршрутное такси №25, 59, 56, 91, автобусы 20 и 40.",
        "latitude":  "54.2749860",
        "longitude":  "48.3117460"
    },
    {
        "type":  "Пункт выдачи заказов (ПВЗ)",
        "city":  "Москва",
        "address":  "ул. Перерва 31",
        "office_number":  "",
        "comment":  "За Гипермаркетом АШАН",
        "latitude":  "55.6585810",
        "longitude":  "37.7442620"
    },
    {
        "type":  "Пункт выдачи заказов (ПВЗ)",
        "city":  "Марьянская",
        "address":  "ул. Красная 35",
        "office_number":  "",
        "comment":  "От православного храма в центре станицы пройти 200 м в сторону Пятёрочке, перед ней будет сразу же находиться наше помещение",
        "latitude":  "45.1006570",
        "longitude":  "38.6356150"
    },
    {
        "type":  "Пункт выдачи заказов (ПВЗ)",
        "city":  "Наро-Фоминск",
        "address":  "ул. Маршала Жукова 13В",
        "office_number":  "",
        "comment":  "От автобусной остановки Мальково необходимо пройти около 100 метров в сторону двухэтажного оранжевого здания. Офис СДЭК находится на первом этаже, рядом с магазином «Все инструменты.ру»",
        "latitude":  "55.3822270",
        "longitude":  "36.7209640"
    },
    {
        "type":  "Пункт выдачи заказов (ПВЗ)",
        "city":  "Екатеринбург",
        "address":  "ул. Чайковского 78",
        "office_number":  "",
        "comment":  "Перекресток Улиц, Чайковского-Авиационная ЖК Чайковский.\nСлева от Барбершопа \"МужикиПро\"",
        "latitude":  "56.8038590",
        "longitude":  "60.6217650"
    },
    {
        "type":  "Пункт выдачи заказов (ПВЗ)",
        "city":  "Киров, городской округ Киров",
        "address":  "ул. Кольцова 13",
        "office_number":  "",
        "comment":  "Остановка Андрея Упита, рядом с детским садом Росток, рядом с шахматной аллеей, рядом с ТЦ \"Красная горка\"",
        "latitude":  "58.6058080",
        "longitude":  "49.5945320"
    },
    {
        "type":  "Пункт выдачи заказов (ПВЗ)",
        "city":  "Краснодар",
        "address":  "ул. Пролетарская 39",
        "office_number":  "",
        "comment":  "От ул. Ярославского идите по ул. Кирова в сторону ул. Криничной до одноэтажного торгового центра. Пункт находится в ТЦ рядом с аптекой \"Апрель\"",
        "latitude":  "45.0247050",
        "longitude":  "39.1064040"
    },
    {
        "type":  "Пункт выдачи заказов (ПВЗ)",
        "city":  "Сызрань",
        "address":  "ул. Победы 3",
        "office_number":  "",
        "comment":  "Вход со стороны ул.Победы д.3.",
        "latitude":  "53.1533783",
        "longitude":  "48.4709909"
    },
    {
        "type":  "Пункт выдачи заказов (ПВЗ)",
        "city":  "Нижний Тагил",
        "address":  "ул. Садовая 44",
        "office_number":  "",
        "comment":  "Остановка «Отделение дороги». Напротив ТЦ «Малина», рядом ТЦ «Райт». Конечная остановка общественного транспорта 1, 4, 14.",
        "latitude":  "57.9022060",
        "longitude":  "59.9959980"
    },
    {
        "type":  "Пункт выдачи заказов (ПВЗ)",
        "city":  "Краснодар",
        "address":  "ул. Сормовская 102",
        "office_number":  "",
        "comment":  "Остановка транспорта «Симферопольская». Перекресток улиц Сормовская и Симферопольская. В жилом доме, первый этаж, третье крыльцо.",
        "latitude":  "45.0312920",
        "longitude":  "39.0892640"
    },
    {
        "type":  "Пункт выдачи заказов (ПВЗ)",
        "city":  "Москва",
        "address":  "Пр-т Вернадского 105к2",
        "office_number":  "",
        "comment":  "Вход со стороны проспекта Вернадского,Ближайшие остановки Ст. м. Юго-Западная(Сокольническая линия),Автобусная остановка Ст. м. Юго-Западная (автобусы :404,226,261,699)",
        "latitude":  "55.6623080",
        "longitude":  "37.4876580"
    },
    {
        "type":  "Пункт выдачи заказов (ПВЗ)",
        "city":  "Москва",
        "address":  "ул. Шарикоподшипниковская 6/14",
        "office_number":  "",
        "comment":  "Пересечение с улицей Новоостаповской, со стороны сквера.",
        "latitude":  "55.7199260",
        "longitude":  "37.6724150"
    },
    {
        "type":  "Пункт выдачи заказов (ПВЗ)",
        "city":  "Долгопрудный",
        "address":  "ул. Циолковского 34",
        "office_number":  "",
        "comment":  "Ориентир — район ЗАГСа и милиции, жилой 9-ти этажный дом, с обратной стороны от подъездов, зеленая дверь",
        "latitude":  "55.9407040",
        "longitude":  "37.5128920"
    },
    {
        "type":  "Пункт выдачи заказов (ПВЗ)",
        "city":  "Москва",
        "address":  "МКАД 87-й км 8",
        "office_number":  "",
        "comment":  "ТЦ \"Час Пик\" главный вход (с ул. Корнейчука). От главного входа прямо до магазина Канцтоваров Koh-i-Nor и сразу налево. Добро пожаловать в СДЭК!",
        "latitude":  "55.8983270",
        "longitude":  "37.6292420"
    },
    {
        "type":  "Пункт выдачи заказов (ПВЗ)",
        "city":  "Архангельское, городской округ Красногорск",
        "address":  "пос. Архангельское 17В",
        "office_number":  "",
        "comment":  "Доехать на общественном транспорте (автобусы м.Строгино - 1067, м.Тушинская - 151, ст.Павшино - 31к, 824) до остановки \"Архангельское\" и пройти от остановки 10 метров.",
        "latitude":  "55.7861930",
        "longitude":  "37.2997670"
    },
    {
        "type":  "Пункт выдачи заказов (ПВЗ)",
        "city":  "Ханты-Мансийск",
        "address":  "ул. Северная 5",
        "office_number":  "",
        "comment":  "-",
        "latitude":  "61.0054359",
        "longitude":  "68.9991989"
    },
    {
        "type":  "Пункт выдачи заказов (ПВЗ)",
        "city":  "Клинцы, Клинцовский район",
        "address":  "пр-т Ленина 49в",
        "office_number":  "",
        "comment":  "150 м от остановки Городская больницы в сторону стодольской бани",
        "latitude":  "52.7567978",
        "longitude":  "32.2522583"
    },
    {
        "type":  "Полнофункциональный офис (ПФО)",
        "city":  "Выборг",
        "address":  "пр. Победы 7",
        "office_number":  "",
        "comment":  "Рядом с магазином \"в СССР\", ориентир - магазин \"ВЕРНЫЙ\" (синее здание на углу), рядом с мостом через проспект Победы",
        "latitude":  "60.7004700",
        "longitude":  "28.7672830"
    },
    {
        "type":  "Пункт выдачи заказов (ПВЗ)",
        "city":  "Пермь",
        "address":  "ул. Пушкина 116Б",
        "office_number":  "",
        "comment":  "За Центральным рынком по ул. Пушкина, перед Арбитражным апелляционным Судом налево и вниз до конца и снова налево. Вход — пристрой к жилому высокоэтажному дому, крыльцо на территории стоянки.",
        "latitude":  "58.0005700",
        "longitude":  "56.2203070"
    },
    {
        "type":  "Пункт выдачи заказов (ПВЗ)",
        "city":  "Севастополь",
        "address":  "пр-т Античный 12",
        "office_number":  "",
        "comment":  "За остановкой «Омега», поворот на «Дикую Омегу», за кольцом коричневое здание №12, вход со стороны дороги (цокольный этаж).",
        "latitude":  "44.5956930",
        "longitude":  "33.4393600"
    },
    {
        "type":  "Полнофункциональный офис (ПФО)",
        "city":  "Уварово, г/о Уварово",
        "address":  "2-й мкр. 5",
        "office_number":  "",
        "comment":  "На пересечении улиц Шоссейная и Октябрьская.",
        "latitude":  "51.9856360",
        "longitude":  "42.2630080"
    },
    {
        "type":  "Полнофункциональный офис (ПФО)",
        "city":  "Бийск",
        "address":  "ул. Иркутская 1/35",
        "office_number":  "",
        "comment":  "Магазин Доброцен на Иркутской",
        "latitude":  "52.5455030",
        "longitude":  "85.2027970"
    },
    {
        "type":  "Пункт выдачи заказов (ПВЗ)",
        "city":  "Суворовское, Сакский городской округ",
        "address":  "ул. Дружбы 19Е",
        "office_number":  "",
        "comment":  "центр села, на маршрутке №4  до конечной остановке, рядом с Церковью и домом для престарелых людей, напротив мойки , по диагонали от ДК",
        "latitude":  "45.2505540",
        "longitude":  "33.3748020"
    },
    {
        "type":  "Полнофункциональный офис (ПФО)",
        "city":  "Ижевск",
        "address":  "ул. Маяковского 22",
        "office_number":  "",
        "comment":  "Вход в офис со стороны улицы Маяковского слева от остановки \"База Росхозторга\"",
        "latitude":  "56.8177400",
        "longitude":  "53.2003600"
    },
    {
        "type":  "Полнофункциональный офис (ПФО)",
        "city":  "Микунь",
        "address":  "ул. Комсомольская 5",
        "office_number":  "",
        "comment":  "Ж.Д.Поликлиника",
        "latitude":  "62.3545230",
        "longitude":  "50.0729560"
    },
    {
        "type":  "Пункт выдачи заказов (ПВЗ)",
        "city":  "Нижнекамск",
        "address":  "ул. Гагарина 36А",
        "office_number":  "",
        "comment":  "200 метров от остановки Парк Шинников или 250 метров от ТЦ Эссен. В сторону ресторана Бастион. Вход с улицы Гагарина",
        "latitude":  "55.6509180",
        "longitude":  "51.8494980"
    },
    {
        "type":  "Пункт выдачи заказов (ПВЗ)",
        "city":  "Видное, Ленинский г/о",
        "address":  "б-р. Солнечный 6",
        "office_number":  "",
        "comment":  "Московская область, Видное, р.п. Лопатино, Солнечный бульвар 6",
        "latitude":  "55.5339900",
        "longitude":  "37.6429050"
    },
    {
        "type":  "Пункт выдачи заказов (ПВЗ)",
        "city":  "Чапаевск",
        "address":  "ул. Щорса 75",
        "office_number":  "",
        "comment":  "Вход со стороны ул. Ульянова",
        "latitude":  "52.9448357",
        "longitude":  "49.6940117"
    },
    {
        "type":  "Постамат",
        "city":  "Санкт-Петербург",
        "address":  "пр-т. Ленинский 128 корп. 2",
        "office_number":  "",
        "comment":  "ТРК «Нарва», 2 этаж. По эскалатору на 2 эт, пройти 15 метров и повернуть направо",
        "latitude":  "59.8526100",
        "longitude":  "30.2683740"
    },
    {
        "type":  "Пункт выдачи заказов (ПВЗ)",
        "city":  "Краснодар",
        "address":  "ул. Лавочкина 13/3",
        "office_number":  "",
        "comment":  "Ост. маг. Муравей (600 м)  176А, 31 ,40",
        "latitude":  "45.0358150",
        "longitude":  "39.1226200"
    },
    {
        "type":  "Постамат",
        "city":  "Конаково, Конаковский муниципальный округ",
        "address":  "пр-т. Ленина 11А",
        "office_number":  "",
        "comment":  "Пятерочка",
        "latitude":  "56.7163150",
        "longitude":  "36.7731280"
    },
    {
        "type":  "Пункт выдачи заказов (ПВЗ)",
        "city":  "Воронеж",
        "address":  "ул. Космонавтов 27Г",
        "office_number":  "",
        "comment":  "ТЦ \"Небо\", перекресток улиц Космонавтов и Пирогова",
        "latitude":  "51.6572730",
        "longitude":  "39.1592480"
    },
    {
        "type":  "Пункт выдачи заказов (ПВЗ)",
        "city":  "Новороссийск",
        "address":  "ул. Мурата Ахеджака 16, корп. 2",
        "office_number":  "",
        "comment":  "Ближайшая остановка \"Пионерская роща\". Далее 200м до серо-оранжевых высоток. Вход со стороны новый школы.",
        "latitude":  "44.6736290",
        "longitude":  "37.7891690"
    },
    {
        "type":  "Постамат",
        "city":  "Гатчина",
        "address":  "ул. Карла Маркса 12А",
        "office_number":  "",
        "comment":  "Постамат СДЭК расположен в магазине \"Дикси\"",
        "latitude":  "59.5580210",
        "longitude":  "30.1297640"
    },
    {
        "type":  "Пункт выдачи заказов (ПВЗ)",
        "city":  "Москва",
        "address":  "ул. Михневская 8",
        "office_number":  "",
        "comment":  "От метро Царицыно автобусы 289, 389 или маршрутка 1103 до остановки Бирюлевская д.59.\nВход со двора через две арки. Офис СДЭК располагается рядом с 10-м жилым подъездом",
        "latitude":  "55.5798110",
        "longitude":  "37.6713100"
    },
    {
        "type":  "Пункт выдачи заказов (ПВЗ)",
        "city":  "Москва",
        "address":  "ул. Русаковская 31",
        "office_number":  "",
        "comment":  "Станция метро Сокольники , выход 1 , перейти дорогу , налево до угла ТЦ , повернуть направо , пройти 100 м.",
        "latitude":  "55.7879650",
        "longitude":  "37.6786620"
    },
    {
        "type":  "Пункт выдачи заказов (ПВЗ)",
        "city":  "Тула",
        "address":  "ул. Буденного 116",
        "office_number":  "",
        "comment":  "От остановки «Перекопская улица» вниз по ул. Демьянова 150 м. Жилой дом из красного кирпича,, третий подъезд от остановки со стороны улицы.",
        "latitude":  "54.1724250",
        "longitude":  "37.6250100"
    },
    {
        "type":  "Полнофункциональный офис (ПФО)",
        "city":  "Октябрьск",
        "address":  "ул. Гая 35",
        "office_number":  "",
        "comment":  "В 2-х минутах от автобусной остановки \"автостанция\"",
        "latitude":  "53.1677520",
        "longitude":  "48.6644250"
    },
    {
        "type":  "Пункт выдачи заказов (ПВЗ)",
        "city":  "Москва",
        "address":  "ш. Хорошевское 25Ак1",
        "office_number":  "",
        "comment":  "м. Полежаевская, выход №7, 400м в сторону ЖК \"Династия\".\nВход с улицы. Ориентир \"Пятёрочка\". Парковка для погрузки/разгрузки на автомобиле.",
        "latitude":  "55.7763850",
        "longitude":  "37.5273890"
    },
    {
        "type":  "Полнофункциональный офис (ПФО)",
        "city":  "Цивильск",
        "address":  "ул. Никитина 5А",
        "office_number":  "",
        "comment":  "Маршрутки 125,173",
        "latitude":  "55.8647780",
        "longitude":  "47.4735550"
    },
    {
        "type":  "Пункт выдачи заказов (ПВЗ)",
        "city":  "Владикавказ",
        "address":  "ул. Астана Кесаева 11",
        "office_number":  "",
        "comment":  "Офис находится в десяти метрах от остановки рынка «Алан» по ул.Астана Кесаева",
        "latitude":  "43.0486620",
        "longitude":  "44.6353190"
    },
    {
        "type":  "Полнофункциональный офис (ПФО)",
        "city":  "Бодайбо",
        "address":  "ул. Мира 7",
        "office_number":  "",
        "comment":  "Во дворе здания Старого КБО (Дома Быта), вниз по ул.Мира от здания районной администрации, за пешеходным переходом направо. Рядом: магазин Юбилейный, АО «ЗДК Лензолото», Дом детского творчества",
        "latitude":  "57.8473190",
        "longitude":  "114.2006840"
    },
    {
        "type":  "Пункт выдачи заказов (ПВЗ)",
        "city":  "Волгодонск",
        "address":  "ул. Ленина 111",
        "office_number":  "",
        "comment":  "Расположен через дорогу от Детского сада \"Журавлик\"",
        "latitude":  "47.5084380",
        "longitude":  "42.1671800"
    },
    {
        "type":  "Пункт выдачи заказов (ПВЗ)",
        "city":  "Ростов-на-Дону",
        "address":  "пр-т Михаила Нагибина 35",
        "office_number":  "",
        "comment":  "Движемся по проспекту М. Нагибина в сторону площади Ленина, остановка Школьная, напротив ТЦ ГОРИЗОНТ 5-ти этажный дом из красного кирпича, Пункт в торце дома, лицом к школе",
        "latitude":  "47.2593600",
        "longitude":  "39.7170700"
    },
    {
        "type":  "Полнофункциональный офис (ПФО)",
        "city":  "Советск, Советский городской округ",
        "address":  "ул. Гагарина 5",
        "office_number":  "",
        "comment":  "Помещение офиса располагается на пересечении улиц Гагарина и Герцена, напротив входа во 2-й корпус Советского технологического корпуса. Ориентир мемориальная доска \"Дом Александра 1\"",
        "latitude":  "55.0826580",
        "longitude":  "21.9019520"
    },
    {
        "type":  "Полнофункциональный офис (ПФО)",
        "city":  "Дзержинский, городской округ Люберцы",
        "address":  "пр-д Угрешский 3А, стр. 2",
        "office_number":  "",
        "comment":  "От остановки двигаться вдоль Дзержинского шоссе до поворота на Северный проезд. Повернуть направо. Идти прямо по Северному проезду. Общее расстояние - 830 метров. Время в пути - 10 минут.",
        "latitude":  "55.6404870",
        "longitude":  "37.8426540"
    },
    {
        "type":  "Полнофункциональный офис (ПФО)",
        "city":  "Сертолово",
        "address":  "ул. Свирская 1, корп. 2",
        "office_number":  "",
        "comment":  "При заезде с улицы Мира направо в направление ЖК Новое Сертолово, Вас будет встречать вывеска CDEK расположенная на фасаде ТЦ.",
        "latitude":  "60.1655375",
        "longitude":  "30.1853493"
    },
    {
        "type":  "Полнофункциональный офис (ПФО)",
        "city":  "Армавир",
        "address":  "ул. Желябова 2",
        "office_number":  "",
        "comment":  "",
        "latitude":  "44.9861395",
        "longitude":  "41.1433909"
    },
    {
        "type":  "Пункт выдачи заказов (ПВЗ)",
        "city":  "Пенза",
        "address":  "ул. Измайлова 58Ак1",
        "office_number":  "",
        "comment":  "Двигаясь в сторону микрорайона Ахуны ПВЗ расположено напротив деткой железной дороги вход с улицы Измайлова в ЖК \"Квартет\"",
        "latitude":  "53.1822550",
        "longitude":  "45.0543900"
    },
    {
        "type":  "Постамат",
        "city":  "Камышин",
        "address":  "ул. Героя Советского Союза В.А. Федоркова 2",
        "office_number":  "",
        "comment":  "Постамат расположен в клубе Городской Детско-Юношеский центр.",
        "latitude":  "50.0918130",
        "longitude":  "45.4186680"
    },
    {
        "type":  "Пункт выдачи заказов (ПВЗ)",
        "city":  "Краснодар",
        "address":  "ул. Кельнская 21",
        "office_number":  "",
        "comment":  "От остановки Бургундская, поворот на улицу Кельнская 30 метров, Вывеска сдэк",
        "latitude":  "45.1174370",
        "longitude":  "38.9188090"
    },
    {
        "type":  "Пункт выдачи заказов (ПВЗ)",
        "city":  "Казань",
        "address":  "ул. Чистопольская 26/5",
        "office_number":  "",
        "comment":  "Перекресток Чистопольской-Меридианной на стороне ЖК \"Берег\" за офисом \"Сбербанк\"",
        "latitude":  "55.8188010",
        "longitude":  "49.1148130"
    },
    {
        "type":  "Пункт выдачи заказов (ПВЗ)",
        "city":  "Феодосия",
        "address":  "ул. Десантников 16",
        "office_number":  "",
        "comment":  "Автобусы: 15,14, 2а, 1, 1а. Вход с улицы Вити Коробкова.",
        "latitude":  "45.0251640",
        "longitude":  "35.3841000"
    },
    {
        "type":  "Пункт выдачи заказов (ПВЗ)",
        "city":  "Омск",
        "address":  "ул. 21-я Амурская 41/4",
        "office_number":  "",
        "comment":  "От остановки Микрорайон Амурский -2 в глубь домов 100 метров к ТК Пятерочка.",
        "latitude":  "55.0451880",
        "longitude":  "73.4245280"
    },
    {
        "type":  "Пункт выдачи заказов (ПВЗ)",
        "city":  "Москва",
        "address":  "пер. Большой Саввинский 2к1",
        "office_number":  "",
        "comment":  "От станции метро «Киевская» 12 минут",
        "latitude":  "55.7365300",
        "longitude":  "37.5699350"
    },
    {
        "type":  "Полнофункциональный офис (ПФО)",
        "city":  "Лянтор",
        "address":  "6-й мкр. 14",
        "office_number":  "",
        "comment":  "ТЦ «Березка»\nЦентральный вход в ТЦ Березка.  Прямо по коридору, рядом с ПВЗ Валдберис",
        "latitude":  "61.6203580",
        "longitude":  "72.1686310"
    },
    {
        "type":  "Пункт выдачи заказов (ПВЗ)",
        "city":  "Екатеринбург",
        "address":  "ул. Маршала Жукова 9",
        "office_number":  "",
        "comment":  "Остановка трамвая \"ул. Сакко и Ванцетти\". Ориентир - площадь 1905 года (перекресток улиц Антона Валека и Маршала Жукова)",
        "latitude":  "56.8396530",
        "longitude":  "60.5885990"
    },
    {
        "type":  "Пункт выдачи заказов (ПВЗ)",
        "city":  "Кемерово",
        "address":  "б-р Строителей 14",
        "office_number":  "",
        "comment":  "От остановки ТРЦ Лето в строну кольца.",
        "latitude":  "55.3513650",
        "longitude":  "86.1613450"
    },
    {
        "type":  "Пункт выдачи заказов (ПВЗ)",
        "city":  "Москва",
        "address":  "ул. Производственная 10к1",
        "office_number":  "",
        "comment":  "От метро Солнцево 5 минут пешком по Производственной улице до дома 10к1",
        "latitude":  "55.6442150",
        "longitude":  "37.3852590"
    },
    {
        "type":  "Пункт выдачи заказов (ПВЗ)",
        "city":  "Заводоуковск",
        "address":  "ул. Теплякова 1В",
        "office_number":  "",
        "comment":  "Территория ТЦ «Элита», рядом Кафе-Чайхана «Лола»",
        "latitude":  "56.5056040",
        "longitude":  "66.5303620"
    },
    {
        "type":  "Полнофункциональный офис (ПФО)",
        "city":  "Воткинск",
        "address":  "ул. Карла Либкнехта 82",
        "office_number":  "",
        "comment":  "Здание Торговая оценки недвижимости «Кром»",
        "latitude":  "57.0547970",
        "longitude":  "54.0007050"
    },
    {
        "type":  "Пункт выдачи заказов (ПВЗ)",
        "city":  "Пермь",
        "address":  "ул. Монастырская 14",
        "office_number":  "",
        "comment":  "От ост. Сквер уральских добровольцев вверх два квартала по ул. Куйбышева до Монастырской, налево, вход с ул. Монастырской, 1 этаж",
        "latitude":  "58.0148370",
        "longitude":  "56.2292740"
    },
    {
        "type":  "Полнофункциональный офис (ПФО)",
        "city":  "Таруса",
        "address":  "ул. Ленина 68",
        "office_number":  "",
        "comment":  "От остановки \"Ростелеком\" около 300-500 м",
        "latitude":  "54.7231950",
        "longitude":  "37.1644170"
    },
    {
        "type":  "Полнофункциональный офис (ПФО)",
        "city":  "Ревда, Свердловская обл.",
        "address":  "ул. Максима Горького 17",
        "office_number":  "",
        "comment":  "Автобусная остановка Почта, 290 метров в сторону площади победы",
        "latitude":  "56.8019080",
        "longitude":  "59.9088170"
    },
    {
        "type":  "Пункт выдачи заказов (ПВЗ)",
        "city":  "Большая Ивановка, Иловлинский район",
        "address":  "ул. Революционная 1А",
        "office_number":  "",
        "comment":  "Отдельно стоящий магазин ТОТОВНИК",
        "latitude":  "49.4533157",
        "longitude":  "44.3335381"
    },
    {
        "type":  "Пункт выдачи заказов (ПВЗ)",
        "city":  "Сочи",
        "address":  "ул. Нагорная 11",
        "office_number":  "",
        "comment":  "Вход со стороны Нагорная, здание Морской Дворец",
        "latitude":  "43.5788073",
        "longitude":  "39.7286163"
    },
    {
        "type":  "Пункт выдачи заказов (ПВЗ)",
        "city":  "Голубое, городской округ Солнечногорск",
        "address":  "ул. Трёхсвятская с3М",
        "office_number":  "",
        "comment":  "Больница №6, Конечная остановка автобуса 495, ТЦ Киоск",
        "latitude":  "55.9807358",
        "longitude":  "37.1036568"
    },
    {
        "type":  "Пункт выдачи заказов (ПВЗ)",
        "city":  "Пермь",
        "address":  "ул. Плеханова 58а",
        "office_number":  "",
        "comment":  "рядом МедлабЭкспресс, Баня",
        "latitude":  "57.9992010",
        "longitude":  "56.2086470"
    },
    {
        "type":  "Пункт выдачи заказов (ПВЗ)",
        "city":  "Санкт-Петербург",
        "address":  "ул. Генерала Кравченко 3к1, пом. 27Н",
        "office_number":  "",
        "comment":  "От проспекта ветеранов по улице Генерала Кравченко последний дом слева",
        "latitude":  "59.8429880",
        "longitude":  "30.1041630"
    },
    {
        "type":  "Постамат",
        "city":  "Омск",
        "address":  "Космический пр-т 99/2",
        "office_number":  "",
        "comment":  "Дом Быта Чкаловский 1 эт. слева от лестницы",
        "latitude":  "54.9819550",
        "longitude":  "73.4677720"
    },
    {
        "type":  "Постамат",
        "city":  "Нижневартовск",
        "address":  "пр-т Победы 10",
        "office_number":  "",
        "comment":  "Постамат СДЭК расположен в ТЦ Людмила",
        "latitude":  "60.9358000",
        "longitude":  "76.5608800"
    },
    {
        "type":  "Пункт выдачи заказов (ПВЗ)",
        "city":  "Петропавловск-Камчатский",
        "address":  "пр-т Победы 20/9",
        "office_number":  "",
        "comment":  "Остановка 10 километр, Территория ОптЭлектрик",
        "latitude":  "53.0714200",
        "longitude":  "158.5980400"
    },
    {
        "type":  "Полнофункциональный офис (ПФО)",
        "city":  "Горнозаводск, Горнозаводский г/о",
        "address":  "ул. Октябрьская 39",
        "office_number":  "",
        "comment":  "От остановки октябрьской, перейти дорогу через светофор, вход рядом с магазином Лион.",
        "latitude":  "58.3781880",
        "longitude":  "58.3235780"
    },
    {
        "type":  "Полнофункциональный офис (ПФО)",
        "city":  "Авило-Успенка",
        "address":  "ул. Кооперативная 47А",
        "office_number":  "",
        "comment":  "Отделение находиться напротив Автостанции и ЖД вокзала",
        "latitude":  "47.6933910",
        "longitude":  "38.6739640"
    },
    {
        "type":  "Пункт выдачи заказов (ПВЗ)",
        "city":  "Самара",
        "address":  "ул. Зои Космодемьянской 3",
        "office_number":  "",
        "comment":  "Общественным транспортом до остановок  \"ул. Ташкентская\",  \"Московское шоссе\", \"ул. Зои Космодемьянской\"",
        "latitude":  "53.2593640",
        "longitude":  "50.2326320"
    },
    {
        "type":  "Полнофункциональный офис (ПФО)",
        "city":  "Акбулак",
        "address":  "ул. Шевченко 31",
        "office_number":  "",
        "comment":  "",
        "latitude":  "51.0057670",
        "longitude":  "55.6085370"
    },
    {
        "type":  "Полнофункциональный офис (ПФО)",
        "city":  "Яя",
        "address":  "ул. Мостовая 2",
        "office_number":  "",
        "comment":  "От остановки \"Железнодорожный переезд\" 100м в сторону центра поселка",
        "latitude":  "56.1988710",
        "longitude":  "86.4362020"
    },
    {
        "type":  "Пункт выдачи заказов (ПВЗ)",
        "city":  "Сыктывкар",
        "address":  "ул. Первомайская 40",
        "office_number":  "",
        "comment":  "Торговый центр Первомайский",
        "latitude":  "61.6755170",
        "longitude":  "50.8224210"
    },
    {
        "type":  "Пункт выдачи заказов (ПВЗ)",
        "city":  "Красногорск",
        "address":  "ул. Заводская 18, 1",
        "office_number":  "",
        "comment":  "От остановки «Микрорайон Южный» по улице Заводская, необходимо пройти 40 метров до торца дома № 18 корп. 1. Далее повернуть направо и следовать прямо 50 метров.",
        "latitude":  "55.8098890",
        "longitude":  "37.3256650"
    },
    {
        "type":  "Пункт выдачи заказов (ПВЗ)",
        "city":  "Хутор Ленина, мо Краснодар",
        "address":  "ул. Наримановская 43",
        "office_number":  "",
        "comment":  "Офис находится напротив СОШ №61",
        "latitude":  "45.0182260",
        "longitude":  "39.2086590"
    },
    {
        "type":  "Пункт выдачи заказов (ПВЗ)",
        "city":  "Кисловодск",
        "address":  "ул. Горького 1",
        "office_number":  "",
        "comment":  "На Месте здания старой гор. Больницы. За аптечным складом, рядом с ломбардам,первый этаж.",
        "latitude":  "43.9067580",
        "longitude":  "42.7147750"
    },
    {
        "type":  "Пункт выдачи заказов (ПВЗ)",
        "city":  "Челябинск",
        "address":  "ул. Гагарина 20",
        "office_number":  "",
        "comment":  "180 метров от остановки \"Дом обуви\" На 100 метров правее Администрации Ленинского района Общий вход с зоомагазином \"Зоомир174\"",
        "latitude":  "55.1366890",
        "longitude":  "61.4388370"
    },
    {
        "type":  "Пункт выдачи заказов (ПВЗ)",
        "city":  "Краснодар",
        "address":  "ул. Черкасская 60",
        "office_number":  "",
        "comment":  "В пятидесяти метрах от остановки Черкасская. Вход на углу жилого дома, слева от 4-го подъезда",
        "latitude":  "45.0655840",
        "longitude":  "39.0360570"
    },
    {
        "type":  "Пункт выдачи заказов (ПВЗ)",
        "city":  "Набережные Челны",
        "address":  "пр. Московский 70",
        "office_number":  "",
        "comment":  "остановка - Спецшкола",
        "latitude":  "55.7183040",
        "longitude":  "52.3862170"
    },
    {
        "type":  "Пункт выдачи заказов (ПВЗ)",
        "city":  "Пенза",
        "address":  "ул. 65-летия Победы 26",
        "office_number":  "",
        "comment":  "ПВЗ расположено в ЖК \"Апгрейд напротив Торговой галереи \"Гараж\" вход с первой линии. ориентир вывеска СДЭК",
        "latitude":  "53.2315650",
        "longitude":  "44.8869280"
    },
    {
        "type":  "Полнофункциональный офис (ПФО)",
        "city":  "Тымовское",
        "address":  "ул. Кировская 98",
        "office_number":  "",
        "comment":  "По ул. Кировская от магазина \"Пятница\" 2 минуты пешком напротив парка находится здание АТП",
        "latitude":  "50.8543400",
        "longitude":  "142.6573540"
    },
    {
        "type":  "Пункт выдачи заказов (ПВЗ)",
        "city":  "Маркова, Иркутский район",
        "address":  "ЖК Ботаника с2А",
        "office_number":  "",
        "comment":  "Вход со двора",
        "latitude":  "52.2173500",
        "longitude":  "104.2796900"
    },
    {
        "type":  "Пункт выдачи заказов (ПВЗ)",
        "city":  "Москва",
        "address":  "пр-т Волгоградский 1с1, подъезд 4",
        "office_number":  "",
        "comment":  "Мы находимся метро Пролетарская, Волгоградский проспект д.1 стр.1 вход со стороны Волгоградского проспекта 1-этажное здание. Вывеска СДЭК",
        "latitude":  "55.7329090",
        "longitude":  "37.6715520"
    },
    {
        "type":  "Пункт выдачи заказов (ПВЗ)",
        "city":  "Смоленск, городской округ Смоленск",
        "address":  "ул. Попова 13/1",
        "office_number":  "",
        "comment":  "От остановки прямо 250 метров",
        "latitude":  "54.7702920",
        "longitude":  "32.0969400"
    },
    {
        "type":  "Полнофункциональный офис (ПФО)",
        "city":  "Елань, Волгоградская область",
        "address":  "ул. Вокзальная 81Д",
        "office_number":  "",
        "comment":  "Не доезжая до ЖД Вокзала, рядом с Покупочкой, напротив находится садик №4.",
        "latitude":  "50.9559890",
        "longitude":  "43.7823420"
    },
    {
        "type":  "Полнофункциональный офис (ПФО)",
        "city":  "Абинск",
        "address":  "ул. Советов 2",
        "office_number":  "",
        "comment":  "Автобусная остановка \"Завод Восход\". Маршрут № 2, 12, 12а. Вход со стороны ул. Степная.",
        "latitude":  "44.8611920",
        "longitude":  "38.1802250"
    },
    {
        "type":  "Полнофункциональный офис (ПФО)",
        "city":  "Зуя",
        "address":  "ул. Шоссейная 112",
        "office_number":  "",
        "comment":  "Офис находится в центре поселка Зуя, по улице Шоссейной. За рынком повернуть на ул. Кооперативную, вход в первом здании с левой стороны.",
        "latitude":  "45.0548290",
        "longitude":  "34.3257410"
    },
    {
        "type":  "Пункт выдачи заказов (ПВЗ)",
        "city":  "Десёновское",
        "address":  "ул. 2-ая Нововатутинская 3",
        "office_number":  "",
        "comment":  "Здание напротив школы. Вход со стороны улицы, 2 подъезд.",
        "latitude":  "55.5167400",
        "longitude":  "37.3519920"
    },
    {
        "type":  "Пункт выдачи заказов (ПВЗ)",
        "city":  "Краснодар",
        "address":  "ул. Евгении Жигуленко 30, корп 1, пом. 3",
        "office_number":  "",
        "comment":  "350053, г. Краснодар, Евгении Жигуленко д. 30, корп 1, пом. 3",
        "latitude":  "45.0991170",
        "longitude":  "39.0067450"
    },
    {
        "type":  "Пункт выдачи заказов (ПВЗ)",
        "city":  "Красноярск",
        "address":  "ул. Академика Вавилова 59А",
        "office_number":  "",
        "comment":  "От остановки Корнетова на юго-запад 200 метров по улице Вавилова",
        "latitude":  "56.0029213",
        "longitude":  "92.9515078"
    },
    {
        "type":  "Пункт выдачи заказов (ПВЗ)",
        "city":  "Хабаровск",
        "address":  "ул. Ленина 66",
        "office_number":  "",
        "comment":  "",
        "latitude":  "48.4822000",
        "longitude":  "135.0920300"
    },
    {
        "type":  "Пункт выдачи заказов (ПВЗ)",
        "city":  "Хвойная",
        "address":  "ул. Красных Зорь 9",
        "office_number":  "",
        "comment":  "",
        "latitude":  "58.8987130",
        "longitude":  "34.5262720"
    },
    {
        "type":  "Пункт выдачи заказов (ПВЗ)",
        "city":  "Подольск",
        "address":  "ул. Подольская 18. кор. 2",
        "office_number":  "",
        "comment":  "Вход в подразделение с обратной стороны дома от жилых подъездов",
        "latitude":  "55.4714270",
        "longitude":  "37.5492080"
    },
    {
        "type":  "Полнофункциональный офис (ПФО)",
        "city":  "Харабали",
        "address":  "5-й кв-л 57",
        "office_number":  "",
        "comment":  "8-й квартал",
        "latitude":  "47.4139730",
        "longitude":  "47.2512130"
    },
    {
        "type":  "Пункт выдачи заказов (ПВЗ)",
        "city":  "Мурманск",
        "address":  "ул. Журбы 19",
        "office_number":  "",
        "comment":  "200 м во двор от остановки Гвардейская улица",
        "latitude":  "68.9556780",
        "longitude":  "33.0822030"
    },
    {
        "type":  "Постамат",
        "city":  "Новосибирск",
        "address":  "ул. Учительская 22",
        "office_number":  "",
        "comment":  "Постамат расположен в магазине \"Мария-Ра\" с левой стороны при входе в магазин.",
        "latitude":  "55.0782880",
        "longitude":  "82.9702500"
    },
    {
        "type":  "Полнофункциональный офис (ПФО)",
        "city":  "Киров, городской округ Киров",
        "address":  "ул. Ивана Попова 71А",
        "office_number":  "",
        "comment":  "Заезд к складу с улицы Попова\nЗаезд к складу с улицы Потребкооперации",
        "latitude":  "58.5681750",
        "longitude":  "49.6346680"
    },
    {
        "type":  "Пункт выдачи заказов (ПВЗ)",
        "city":  "Москва",
        "address":  "ул. Большая Академическая 63",
        "office_number":  "",
        "comment":  "От Петровско-Разумовской на автобусах 114, 204е, 24 до остановки Улица Лихоборские Бугры\nОт Лихоборы на автобусах 114, 123, 204, 282т, 57 до остановки Улица Лихоборские Бугры",
        "latitude":  "55.8399350",
        "longitude":  "37.5463710"
    },
    {
        "type":  "Полнофункциональный офис (ПФО)",
        "city":  "Приморско-Ахтарск",
        "address":  "ул. Победы 31А",
        "office_number":  "",
        "comment":  "Расположен по адресу Приморско-Ахтарск , ул. Победы , 31А , справа от супермаркета \"Стройка\" , в оном здании с магазином \"САНТЕХГАЗ\" . Добраться можно общественным транспортом №3,5",
        "latitude":  "46.0515530",
        "longitude":  "38.1890990"
    },
    {
        "type":  "Пункт выдачи заказов (ПВЗ)",
        "city":  "Уфа",
        "address":  "ул. Мира 47",
        "office_number":  "",
        "comment":  "ЖК \"Квартал Мира\", напротив трамвайной остановки \"ул. Горького\"",
        "latitude":  "54.8243570",
        "longitude":  "56.0702980"
    },
    {
        "type":  "Постамат",
        "city":  "Ногинск",
        "address":  "ул. Набережная 60-ти летия Октября 4",
        "office_number":  "",
        "comment":  "1-ый этаж между центральным входом и входом в магазин ЭЛЬДОРАДО",
        "latitude":  "55.8605490",
        "longitude":  "38.4365660"
    },
    {
        "type":  "Полнофункциональный офис (ПФО)",
        "city":  "Аргун",
        "address":  "ул. Кадырова 87А",
        "office_number":  "",
        "comment":  "ПВЗ находится недалеко от надземного пешеходного перехода.",
        "latitude":  "43.2929380",
        "longitude":  "45.8855050"
    },
    {
        "type":  "Пункт выдачи заказов (ПВЗ)",
        "city":  "Гудермес",
        "address":  "пр-т. А.Кадырова 77В",
        "office_number":  "",
        "comment":  "Офис СДЭК находится по проспекту А. Кадырова д.77в. В ТЦ \"Семейный\" рядом с остановкой \"Республиканская\"",
        "latitude":  "43.3443070",
        "longitude":  "46.1196180"
    },
    {
        "type":  "Полнофункциональный офис (ПФО)",
        "city":  "Ухта",
        "address":  "ул. Юбилейная 14",
        "office_number":  "40",
        "comment":  "",
        "latitude":  "63.5649261",
        "longitude":  "53.6914597"
    },
    {
        "type":  "Пункт выдачи заказов (ПВЗ)",
        "city":  "Долгопрудный",
        "address":  "Лихачевское шоссе 14 к1",
        "office_number":  "",
        "comment":  "От остановки «Заводская» идти во двор дома Лихачевское шоссе 14 к1, в углу железная коричневая дверь, заходите и направо",
        "latitude":  "55.9479670",
        "longitude":  "37.4927200"
    },
    {
        "type":  "Полнофункциональный офис (ПФО)",
        "city":  "Новый, Елизовский район",
        "address":  "ул. Шоссейная 66",
        "office_number":  "",
        "comment":  "Удобный общественный транспорт (маршруты: №102, №104), рядом с остановкой, вход в здание, расположенный за остановкой общественного транспорта, с яркой световой рекламой над ним. Большая парковка на 30-40 автомобилей.",
        "latitude":  "53.1092600",
        "longitude":  "158.5235150"
    },
    {
        "type":  "Пункт выдачи заказов (ПВЗ)",
        "city":  "Мытищи",
        "address":  "пр-т Астрахова 5Ак1",
        "office_number":  "",
        "comment":  "Автобус до остановки ЖК Новое Медведково, или по улице Мира поворот на Колпакова , далее по проспекту Астрахова , улгловой дом ул. Астрахова 6",
        "latitude":  "55.9286020",
        "longitude":  "37.7289900"
    },
    {
        "type":  "Пункт выдачи заказов (ПВЗ)",
        "city":  "Санкт-Петербург",
        "address":  "пр-т. Кузнецова 11 корп.2",
        "office_number":  "",
        "comment":  "Расположен в ЖК Балтийская волна. Рядом остановка общественного транспорта.",
        "latitude":  "59.8622460",
        "longitude":  "30.1895140"
    },
    {
        "type":  "Пункт выдачи заказов (ПВЗ)",
        "city":  "Ростов-на-Дону",
        "address":  "ул. Зорге 70/1",
        "office_number":  "",
        "comment":  "Находимся между Додо-Пицца и Офискласс, через дорогу от ТЦ Талер",
        "latitude":  "47.2308540",
        "longitude":  "39.6300050"
    },
    {
        "type":  "Пункт выдачи заказов (ПВЗ)",
        "city":  "Дзержинск, городской округ Дзержинск",
        "address":  "пр-т Ленина 65",
        "office_number":  "",
        "comment":  "",
        "latitude":  "56.2380870",
        "longitude":  "43.4639880"
    },
    {
        "type":  "Полнофункциональный офис (ПФО)",
        "city":  "Дальнегорск",
        "address":  "ул. Пионерская 9",
        "office_number":  "",
        "comment":  "От площади 30 метров. бывший магазин зоотоваров",
        "latitude":  "44.5471700",
        "longitude":  "135.5529020"
    },
    {
        "type":  "Пункт выдачи заказов (ПВЗ)",
        "city":  "Санкт-Петербург",
        "address":  "ул. Яхтенная 24, корп. 2",
        "office_number":  "",
        "comment":  "За СК “Приморская Жемчужина”, в ЖК “Легенда на Яхтенной”",
        "latitude":  "59.9982000",
        "longitude":  "30.2184000"
    },
    {
        "type":  "Полнофункциональный офис (ПФО)",
        "city":  "Остров, Островский район",
        "address":  "ул. Карла Маркса 11",
        "office_number":  "",
        "comment":  "Автобусная остановка: БОЛЬНИЦА. Территория завода «ВЕКТОР». Вход в офис со стороны дороги",
        "latitude":  "57.3496890",
        "longitude":  "28.3532200"
    },
    {
        "type":  "Пункт выдачи заказов (ПВЗ)",
        "city":  "Сестрорецк",
        "address":  "ул. Мосина 8А",
        "office_number":  "",
        "comment":  "От ж/д станции Сестрорецк по ул. Воскова до улицы Мосина, поворот на право, 100 метров с левой стороны.  Вход со стороны  Разливного переулка.",
        "latitude":  "60.0918410",
        "longitude":  "29.9657320"
    },
    {
        "type":  "Пункт выдачи заказов (ПВЗ)",
        "city":  "Санкт-Петербург",
        "address":  "ул. Нахимова 14/41",
        "office_number":  "",
        "comment":  "Вход в офис со стороны ул. Нахимова между 8 и 9 подъездом.",
        "latitude":  "59.9429610",
        "longitude":  "30.2333370"
    },
    {
        "type":  "Пункт выдачи заказов (ПВЗ)",
        "city":  "Анапа",
        "address":  "ш. Супсехское 47, к. 2",
        "office_number":  "",
        "comment":  "Офис находится на 1 этаже в ЖК «Гарант» в ПВЗ Ozon, ост. ЖК Южный квартал.",
        "latitude":  "44.8750809",
        "longitude":  "37.3445249"
    },
    {
        "type":  "Пункт выдачи заказов (ПВЗ)",
        "city":  "Новосибирск",
        "address":  "ул. Маяковского 4/1",
        "office_number":  "",
        "comment":  "С остановки обходим поликлинику справа, проходим 2 красных здания, вход справа от ДРЦ \"Лимпопо\".",
        "latitude":  "54.9722250",
        "longitude":  "83.0950980"
    },
    {
        "type":  "Пункт выдачи заказов (ПВЗ)",
        "city":  "Москва",
        "address":  "ул. Ефремова 18",
        "office_number":  "",
        "comment":  "От северного вестибюля ст. м. Спортивная пройти на ул. Ефремова и дойти на северо-восток до д. 18",
        "latitude":  "55.7229680",
        "longitude":  "37.5691590"
    },
    {
        "type":  "Пункт выдачи заказов (ПВЗ)",
        "city":  "Уфа",
        "address":  "ул. Габдуллы  Амантая 3",
        "office_number":  "",
        "comment":  "100 метров от остановки \"магазин Байрам\" подняться в сторону Софьи Перовской",
        "latitude":  "54.6922030",
        "longitude":  "55.9909770"
    },
    {
        "type":  "Пункт выдачи заказов (ПВЗ)",
        "city":  "Санкт-Петербург",
        "address":  "ул. Савушкина 143, к.1",
        "office_number":  "",
        "comment":  "По диагонали, слева от метро Беговая, угловой жилой дом \"Прагма\" . Вход со стороны ул. Савушкина, цоколь между шавермой Fratelli и нотариусом.",
        "latitude":  "59.9895450",
        "longitude":  "30.2011730"
    },
    {
        "type":  "Пункт выдачи заказов (ПВЗ)",
        "city":  "Калуга",
        "address":  "ул. Маршала Жукова 39",
        "office_number":  "",
        "comment":  "Возле Маршала Жукова, 39 - 10 остановок. Школа №10 73.5 м. Железнодорожная больница 288 м. Городской рынок 533.9 м. пл. Маяковского (ул. Чапаева) 600.2 м.",
        "latitude":  "54.5182536",
        "longitude":  "36.2903675"
    },
    {
        "type":  "Пункт выдачи заказов (ПВЗ)",
        "city":  "Тула",
        "address":  "ул. Токарева 69",
        "office_number":  "",
        "comment":  "Вход в офис со стороны ул. Комсомольская",
        "latitude":  "54.2265960",
        "longitude":  "37.6188480"
    },
    {
        "type":  "Пункт выдачи заказов (ПВЗ)",
        "city":  "Саратов",
        "address":  "ул. им. Орджоникидзе Г.К. 13/5",
        "office_number":  "",
        "comment":  "Двигаясь по ул. Орджоникидзе от проспекта Энтузиастов, за Прокуратурой Заводского района поворачиваем направо и проезжаем 80 метров.",
        "latitude":  "51.5024350",
        "longitude":  "45.9535520"
    },
    {
        "type":  "Бэк-офис",
        "city":  "Зеленогорск, ЗАТО Зеленогорск",
        "address":  "ул. Строителей 5, кв.33",
        "office_number":  "",
        "comment":  "",
        "latitude":  "56.1069560",
        "longitude":  "94.5839040"
    },
    {
        "type":  "Пункт выдачи заказов (ПВЗ)",
        "city":  "Санкт-Петербург",
        "address":  "ул. Седова 89к1",
        "office_number":  "",
        "comment":  "Офис расположен в магазине \"Градусы\"",
        "latitude":  "59.8681980",
        "longitude":  "30.4406280"
    },
    {
        "type":  "Постамат",
        "city":  "Курган",
        "address":  "ул. Пушкина 25",
        "office_number":  "",
        "comment":  "2 этаж ТЦ Пушкинский.",
        "latitude":  "55.4322580",
        "longitude":  "65.3190440"
    },
    {
        "type":  "Полнофункциональный офис (ПФО)",
        "city":  "Звенигово",
        "address":  "ул. Ленина 33",
        "office_number":  "",
        "comment":  "Напротив бульвара и администрации города",
        "latitude":  "55.9728870",
        "longitude":  "48.0151680"
    },
    {
        "type":  "Пункт выдачи заказов (ПВЗ)",
        "city":  "Сочи",
        "address":  "ул. Платановая 5",
        "office_number":  "",
        "comment":  "ТЦ «АФИНА», напротив Почты",
        "latitude":  "43.5125280",
        "longitude":  "39.8657500"
    },
    {
        "type":  "Пункт выдачи заказов (ПВЗ)",
        "city":  "Санкт-Петербург",
        "address":  "ул. Подольская 31",
        "office_number":  "",
        "comment":  "Из метро направо по Загородному пр. до ул. Подольская. Далее направо по прямой ~400м.",
        "latitude":  "59.9143170",
        "longitude":  "30.3255790"
    },
    {
        "type":  "Пункт выдачи заказов (ПВЗ)",
        "city":  "Оренбург",
        "address":  "ул. Салмышская 67",
        "office_number":  "",
        "comment":  "300М от ТК Кит, ближайшая остановка общ. Транспорта ТК Кит, жилой дом с административными помещениями,крыльцо на территории стоянки.",
        "latitude":  "51.8134890",
        "longitude":  "55.1774800"
    },
    {
        "type":  "Пункт выдачи заказов (ПВЗ)",
        "city":  "Москва",
        "address":  "ул. Малая Филевская 30",
        "office_number":  "",
        "comment":  "От м. Пионерская по улице Малая Филевска (5-7 мин. пешком) от м. Кунцевская также по улице Малая Филевская (10 мин. Пешком). Остановка ул. Полосухина рядом с почтой России.",
        "latitude":  "55.7351930",
        "longitude":  "37.4601450"
    },
    {
        "type":  "Пункт выдачи заказов (ПВЗ)",
        "city":  "Челябинск",
        "address":  "ул. Воровского 34",
        "office_number":  "",
        "comment":  "Пересечение улиц Воровского и Курчатова, в здании торговой сети Монетка",
        "latitude":  "55.1496810",
        "longitude":  "61.3855570"
    },
    {
        "type":  "Пункт выдачи заказов (ПВЗ)",
        "city":  "Оренбург",
        "address":  "ул. Цвиллинга 32",
        "office_number":  "",
        "comment":  "Справа по улице Цвиллинга от улицы Постникова сразу за магазином игрушек «ЛИМПОПО», в 100 метрах от остановки общественного транспорта «Постникова» по ул. Цвиллинга.",
        "latitude":  "51.7728030",
        "longitude":  "55.0937390"
    },
    {
        "type":  "Пункт выдачи заказов (ПВЗ)",
        "city":  "Новосибирск",
        "address":  "ул. Большевистская 48",
        "office_number":  "",
        "comment":  "ПВЗ находится рядом с остановкой \"Мелькомбинат\", напротив \"Бургер-кинг\"",
        "latitude":  "54.9969700",
        "longitude":  "82.9641960"
    },
    {
        "type":  "Пункт выдачи заказов (ПВЗ)",
        "city":  "Екатеринбург",
        "address":  "ул. Студенческая 35",
        "office_number":  "",
        "comment":  "В районе пересечения улиц Студенческой и Лодыгина, напротив ЗАГСа Кировского района",
        "latitude":  "56.8440180",
        "longitude":  "60.6642650"
    },
    {
        "type":  "Пункт выдачи заказов (ПВЗ)",
        "city":  "Санкт-Петербург",
        "address":  "ул. Яхтенная 3, корп.1",
        "office_number":  "",
        "comment":  "От остановки Яхтенная 249 метров.",
        "latitude":  "59.9852240",
        "longitude":  "30.2162360"
    },
    {
        "type":  "Пункт выдачи заказов (ПВЗ)",
        "city":  "Южный, Динской район",
        "address":  "ул. Северная 32",
        "office_number":  "",
        "comment":  "Вход со стороны Смоленского переулка. После поворота на Смоленский переулок с Северной улицы (к пятерочке на Войсковой), справа первый частный дом после многоэтажек",
        "latitude":  "45.1595450",
        "longitude":  "39.0162570"
    },
    {
        "type":  "Пункт выдачи заказов (ПВЗ)",
        "city":  "Евпатория",
        "address":  "ул. Крупской 60а",
        "office_number":  "",
        "comment":  "ПВЗ находится в ТЦ \"ДОМ МОДЕЛЕЙ\" (со стороны ул. 9 Мая), расположенном между двумя ТЦ \"ФУРШЕТ\" и \"МАКСИМУМ\".",
        "latitude":  "45.2038383",
        "longitude":  "33.3483009"
    },
    {
        "type":  "Пункт выдачи заказов (ПВЗ)",
        "city":  "Ростов-на-Дону",
        "address":  "пер. Халтуринский 159/63",
        "office_number":  "",
        "comment":  "На пересечении пер. Халтуринский и ул. Козлова напротив магазина Пятерочка.",
        "latitude":  "47.2347570",
        "longitude":  "39.6951960"
    },
    {
        "type":  "Полнофункциональный офис (ПФО)",
        "city":  "Ефремов",
        "address":  "ул. Горького 17",
        "office_number":  "",
        "comment":  "Через дорогу от центральной почты, рядом с магазином Светофор",
        "latitude":  "53.1404980",
        "longitude":  "38.1129390"
    },
    {
        "type":  "Пункт выдачи заказов (ПВЗ)",
        "city":  "Хабаровск",
        "address":  "ул. Вахова 8",
        "office_number":  "",
        "comment":  "На пересечении ул. Вахова-ул.Сысоева. 1 этаж в 10 этажном доме, с торца здания. Вход смотрит на ул. Сысоева",
        "latitude":  "48.4370840",
        "longitude":  "135.1008610"
    },
    {
        "type":  "Постамат",
        "city":  "Грозный, г/о Грозный",
        "address":  "ул. Вахи Алиева 171",
        "office_number":  "",
        "comment":  "Постамат расположен в ТЦ Пассаж. Находится рядом на 1 этаже рядом с центральным входом.",
        "latitude":  "43.3462219",
        "longitude":  "45.6519623"
    },
    {
        "type":  "Пункт выдачи заказов (ПВЗ)",
        "city":  "Екатеринбург",
        "address":  "ул. Инженерная 34",
        "office_number":  "",
        "comment":  "Остановка \"улица Инженерная\", 100 метров по улице Инженерной в сторону улицы Черняховской, жилой дом Инженерная 34, вывеска СДЭК",
        "latitude":  "56.7544450",
        "longitude":  "60.7087850"
    },
    {
        "type":  "Полнофункциональный офис (ПФО)",
        "city":  "Куйбышево, Бахчисарайский район",
        "address":  "Речной тупик 2Б",
        "office_number":  "",
        "comment":  "Заезд, вход со стороны ул. Ленина",
        "latitude":  "44.6285170",
        "longitude":  "33.8642310"
    },
    {
        "type":  "Постамат",
        "city":  "посёлок Птицефабрики, Мытищи",
        "address":  "Дмитровское ш. с4",
        "office_number":  "",
        "comment":  "ТЦ \"5 Планет\", второй вход слева.",
        "latitude":  "55.9957000",
        "longitude":  "37.5369490"
    },
    {
        "type":  "Пункт выдачи заказов (ПВЗ)",
        "city":  "Саратов",
        "address":  "ул. Техническая 14",
        "office_number":  "",
        "comment":  "Через дорогу от ЖК \"Звезда\"",
        "latitude":  "51.5751140",
        "longitude":  "46.0133350"
    },
    {
        "type":  "Пункт выдачи заказов (ПВЗ)",
        "city":  "Кемерово",
        "address":  "пр-т. Ленина 111",
        "office_number":  "",
        "comment":  "От ост. Универсам 2, 150 м направо",
        "latitude":  "55.3446130",
        "longitude":  "86.1447170"
    },
    {
        "type":  "Пункт выдачи заказов (ПВЗ)",
        "city":  "Москва",
        "address":  "пр-д Серебрякова 6",
        "office_number":  "",
        "comment":  "Центральный вход в БЦ Серебрякова, 6 со стороны проезда Серебрякова и сразу справа",
        "latitude":  "55.8469620",
        "longitude":  "37.6513670"
    },
    {
        "type":  "Пункт выдачи заказов (ПВЗ)",
        "city":  "Тула",
        "address":  "ул. 9 Мая 6",
        "office_number":  "",
        "comment":  "с ост. \"Площадь победы\" вдоль, мимо SPAR по ул. 9 мая, вход с дальнего торца дома; с ост. \"Оружейная улица\", вдоль ул. 9 мая, в сторону просп. Ленина, вход с торца здания",
        "latitude":  "54.1655470",
        "longitude":  "37.5829330"
    },
    {
        "type":  "Полнофункциональный офис (ПФО)",
        "city":  "Учкекен",
        "address":  "ул. Ленина 33",
        "office_number":  "",
        "comment":  "Возле поворота на базар",
        "latitude":  "43.9475050",
        "longitude":  "42.5225800"
    },
    {
        "type":  "Пункт выдачи заказов (ПВЗ)",
        "city":  "Ангарск",
        "address":  "ул. Ленина 31А",
        "office_number":  "",
        "comment":  "от остановки пройти 10 метров в сторону дома 31а",
        "latitude":  "52.5445060",
        "longitude":  "103.8898660"
    },
    {
        "type":  "Пункт выдачи заказов (ПВЗ)",
        "city":  "Севастополь",
        "address":  "ул. Загородная балка 2Г",
        "office_number":  "",
        "comment":  "От остановки Пожарова в сторону цирка 150м.",
        "latitude":  "44.6042450",
        "longitude":  "33.5090650"
    },
    {
        "type":  "Пункт выдачи заказов (ПВЗ)",
        "city":  "Сосенское",
        "address":  "пр-т Куприна 24, 2",
        "office_number":  "помещ.7Н",
        "comment":  "Жилой комплекс Бунинские Луга, проспект куприна дом 24 корп 2",
        "latitude":  "55.5441900",
        "longitude":  "37.4789050"
    },
    {
        "type":  "Пункт выдачи заказов (ПВЗ)",
        "city":  "Москва",
        "address":  "ул. Генерала Тюленева 25А",
        "office_number":  "",
        "comment":  "16 мин от Теплого Стана, или 1 мин от автобусной остановки, вход со стороны ул. Генерала Тюленева, парковка у входа есть",
        "latitude":  "55.6192140",
        "longitude":  "37.4873190"
    },
    {
        "type":  "Пункт выдачи заказов (ПВЗ)",
        "city":  "Сергиев Посад",
        "address":  "ул. Осипенко 6",
        "office_number":  "",
        "comment":  "При движении из центра города по проспекту Красной Армии, поворот направо на ул. Глинки, далее через 300 м съезд налево во двор д.6 (дом относится к ул.Осипенко). На торце дома вывеска CDEK, вход под крыльцом с зеленой крышей в 10 м",
        "latitude":  "56.3257760",
        "longitude":  "38.1551980"
    },
    {
        "type":  "Пункт выдачи заказов (ПВЗ)",
        "city":  "Москва",
        "address":  "ул. 2-я Владимирская 6, корп.1",
        "office_number":  "",
        "comment":  "От метро Перово : автобус 141 - 2 остановки, автобусы н4, 131 - 3 остановки , трамвай 37 - 4 остановки кинотеатр Слава (5-10 минут)\n\nОт метро Шоссе Энтузиастов : автобусы т53, 214трамвай 36,37,46 - 3 остановки, автобусы 125, 702,141 - 4 остановки",
        "latitude":  "55.7614890",
        "longitude":  "37.7779700"
    },
    {
        "type":  "Пункт выдачи заказов (ПВЗ)",
        "city":  "Уссурийск",
        "address":  "ул. Пушкина 17",
        "office_number":  "",
        "comment":  "Остановка \"Антарес\", перекресток Пушкина-Советская в сторону ул. Горького по правой стороне Генеральский дом , 1 этаж, СДЭК",
        "latitude":  "43.7989120",
        "longitude":  "131.9455190"
    },
    {
        "type":  "Пункт выдачи заказов (ПВЗ)",
        "city":  "Пенза",
        "address":  "ул. Терновского 207",
        "office_number":  "",
        "comment":  "Офис СДЭК находится в жилом доме на 1 этаже 1 линии, за  остановкой общественного транспорта «Петровская улица».  Вход в ПВЗ с вывеской «CDEK»",
        "latitude":  "53.1410710",
        "longitude":  "45.0218640"
    },
    {
        "type":  "Пункт выдачи заказов (ПВЗ)",
        "city":  "Ижевск",
        "address":  "ул. Баранова 46",
        "office_number":  "",
        "comment":  "Вход с задней стороны дома 18 этажный дом бело-оранжевый. Открыть шлагбаум 8-982-124-61-94",
        "latitude":  "56.8348950",
        "longitude":  "53.1419790"
    },
    {
        "type":  "Полнофункциональный офис (ПФО)",
        "city":  "Далматово",
        "address":  "ул. Советская 174",
        "office_number":  "",
        "comment":  "С жд вокзала по ул.Попова, до ул. Советская, направо до администрации, напротив расположен офис СДЭК.",
        "latitude":  "56.2576580",
        "longitude":  "62.9341090"
    },
    {
        "type":  "Пункт выдачи заказов (ПВЗ)",
        "city":  "Лангепас",
        "address":  "ул. Ленина 36",
        "office_number":  "",
        "comment":  "Вход в ТЦ Урьевский - со стороны улицы Ленина.  Крайний левый вход (магазин Монетка - справа),  ориентир - вывеска - Дом Хлеба пекарня.  Остановка - ТЦ Лангепас",
        "latitude":  "61.2490280",
        "longitude":  "75.1812820"
    },
    {
        "type":  "Постамат",
        "city":  "Москва",
        "address":  "ул. Маршала Соколовского 3",
        "office_number":  "",
        "comment":  "200 мешком от станции метро Октябрьское поле в сторону улице народного ополчения, автобусная остановка - Маршала Соколовского на на 253 автобусе и пешком 180 метров. Войти в магазин \"Торговые ряды\", постамат расположен в конце коридора.",
        "latitude":  "55.7932470",
        "longitude":  "37.4892480"
    },
    {
        "type":  "Пункт выдачи заказов (ПВЗ)",
        "city":  "Яблоновский",
        "address":  "ул. Дорожная 176/1",
        "office_number":  "",
        "comment":  "пгт. Яблоновский, ул. Дорожная, пересечение с ул. Космической. автобусная остановка \"Восточная\"",
        "latitude":  "44.9798770",
        "longitude":  "38.9440800"
    },
    {
        "type":  "Пункт выдачи заказов (ПВЗ)",
        "city":  "Санкт-Петербург",
        "address":  "ул. Русановская 20к1",
        "office_number":  "",
        "comment":  "Отдельное здание ПВЗ OZON",
        "latitude":  "59.8653840",
        "longitude":  "30.5134260"
    },
    {
        "type":  "Пункт выдачи заказов (ПВЗ)",
        "city":  "Пушкино, Пушкинский г/о",
        "address":  "ул. Текстильщиков 1",
        "office_number":  "",
        "comment":  "от Института туризма 3 минуты пешком 290 метров",
        "latitude":  "55.9891053",
        "longitude":  "37.8492248"
    },
    {
        "type":  "Пункт выдачи заказов (ПВЗ)",
        "city":  "Котовск, Тамбовская область",
        "address":  "ул. Октябрьская 22",
        "office_number":  "",
        "comment":  "Находится на пересечении ул Октябрьская и ул Пионерская, ближайшие остановки Казначейство и Проспект труда.",
        "latitude":  "52.5909560",
        "longitude":  "41.4980700"
    },
    {
        "type":  "Пункт выдачи заказов (ПВЗ)",
        "city":  "Сочи",
        "address":  "ул. Политехническая 38/2",
        "office_number":  "",
        "comment":  "В здании Мини-отеля \"Альбатрос\", отдельный вход с правой стороны здания",
        "latitude":  "43.6138380",
        "longitude":  "39.7135840"
    },
    {
        "type":  "Постамат",
        "city":  "Электросталь",
        "address":  "ул. Второва 3",
        "office_number":  "",
        "comment":  "Кафе Бунькофф",
        "latitude":  "55.8109560",
        "longitude":  "38.4362250"
    },
    {
        "type":  "Полнофункциональный офис (ПФО)",
        "city":  "Новый Оскол, Новооскольский район",
        "address":  "ул. Кирова 3",
        "office_number":  "",
        "comment":  "На маршрутном такси №1, №2, №3, №4 (все проходят мимо офиса).",
        "latitude":  "50.7608090",
        "longitude":  "37.8657680"
    },
    {
        "type":  "Пункт выдачи заказов (ПВЗ)",
        "city":  "Белый Яр, Сургутский район",
        "address":  "ул. Есенина 13",
        "office_number":  "",
        "comment":  "100 метров от ТЦ Европа",
        "latitude":  "61.2589370",
        "longitude":  "73.2546380"
    },
    {
        "type":  "Пункт выдачи заказов (ПВЗ)",
        "city":  "Лабытнанги",
        "address":  "ул. Школьная 23а",
        "office_number":  "",
        "comment":  "За Общеобразовательной школой №3 Бывший ивановец 2-х этажное здание",
        "latitude":  "66.6605700",
        "longitude":  "66.3752590"
    },
    {
        "type":  "Пункт выдачи заказов (ПВЗ)",
        "city":  "Махачкала",
        "address":  "пр-т Али-Гаджи Акушинского 52",
        "office_number":  "",
        "comment":  "Пр-т Акушинского, не доезжая до поворота на детскую многопрофильную больницу, возле аптеки \"ШАХ\"",
        "latitude":  "42.9809710",
        "longitude":  "47.4589650"
    },
    {
        "type":  "Пункт выдачи заказов (ПВЗ)",
        "city":  "Химки",
        "address":  "ул. Совхозная 16 корп. 2",
        "office_number":  "",
        "comment":  "Вход со стороны улицы",
        "latitude":  "55.9023340",
        "longitude":  "37.4791100"
    },
    {
        "type":  "Полнофункциональный офис (ПФО)",
        "city":  "Зимовники, Зимовниковский район",
        "address":  "ул. Дзержинского 142",
        "office_number":  "",
        "comment":  "На пересечении пер.87 стрелковой дивизии и ул.Дзержинского, недалеко от рынка и Центра занятости",
        "latitude":  "47.1432920",
        "longitude":  "42.4756250"
    },
    {
        "type":  "Постамат",
        "city":  "Юный Ленинец",
        "address":  "ш. Советское 40",
        "office_number":  "",
        "comment":  "На Советском шоссе, перекрёсток посёлка Планета и посёлка Юный Ленинец, магазин Продукты.",
        "latitude":  "54.8959310",
        "longitude":  "82.9920070"
    },
    {
        "type":  "Пункт выдачи заказов (ПВЗ)",
        "city":  "Тюмень",
        "address":  "ул. Михаила Сперанского 41",
        "office_number":  "",
        "comment":  "От остановки Николая Ростовцева необходимо вернутся назад, пройти прямо и с левой стороны находиться офис",
        "latitude":  "57.0957660",
        "longitude":  "65.5917480"
    },
    {
        "type":  "Пункт выдачи заказов (ПВЗ)",
        "city":  "Москва",
        "address":  "ул. Земляной вал 14/16",
        "office_number":  "",
        "comment":  "Станция метро Курская выход номер 3. Спускаемся в подземный переход. Из подземного перехода подняться направо и пройти прямо вдоль ул земляной вал около 300м, вход расположен в одном здании с банком ВТБ, вывеска СДЭК",
        "latitude":  "55.7608940",
        "longitude":  "37.6569460"
    },
    {
        "type":  "Пункт выдачи заказов (ПВЗ)",
        "city":  "Новоселье, Ломоносовский район",
        "address":  "пр. Питерский 5",
        "office_number":  "",
        "comment":  "ЖК «NewПитер». Северо-восточный угол дома 5, вход со стороны дома 7 по Питерскому проспекту.",
        "latitude":  "59.8124900",
        "longitude":  "30.0817530"
    },
    {
        "type":  "Пункт выдачи заказов (ПВЗ)",
        "city":  "Челябинск",
        "address":  "ул. Академика Королева 44",
        "office_number":  "",
        "comment":  "Проезд, автобус - 15, 16с, 31, 32 или маршр. такси - 3, 31, 24,54, 60, 78 ,86, 94, 136, 157 ост. Ак. Королёва, 300 м вверх по ул. Королёва. Перед офисом большая парковка, напротив м-зин «К\u0026Б»",
        "latitude":  "55.1643590",
        "longitude":  "61.2897100"
    },
    {
        "type":  "Полнофункциональный офис (ПФО)",
        "city":  "Красный Чикой",
        "address":  "ул. Первомайская 98",
        "office_number":  "",
        "comment":  "В здании магазина \"Славянка\", ближе к озеру.",
        "latitude":  "50.3618170",
        "longitude":  "108.7468590"
    },
    {
        "type":  "Пункт выдачи заказов (ПВЗ)",
        "city":  "Москва",
        "address":  "ул. Генерала Белова 29",
        "office_number":  "",
        "comment":  "ТЦ Фея, 1 этаж.",
        "latitude":  "55.6149200",
        "longitude":  "37.7208480"
    },
    {
        "type":  "Пункт выдачи заказов (ПВЗ)",
        "city":  "Оленино, Оленинский район",
        "address":  "ул. Кузьмина 27/2",
        "office_number":  "",
        "comment":  "Офис расположен в магазине Градусы",
        "latitude":  "56.2056810",
        "longitude":  "33.4870080"
    },